var edificios = {
      "type": "FeatureCollection",
      "features": [
{ "type": "Feature", "properties": { "ADDRESS": " Reforma 1, Lieza, 70760 Tehuantepec, Oax., Mexico ", "STATUS":0, "NAME": "","MORE_INFO":"Callo gran parte ","TYPE":"Edificio"}, "geometry": { "type": "Point", "coordinates": [ -95.2514944,16.325979 ] }},
{ "type": "Feature", "properties": { "ADDRESS": " Tulipanes, Los Laureles, 29020 Tuxtla Gutiérrez, Chis., Mexico ", "STATUS":0, "NAME": "","MORE_INFO":"Está cuarteado ","TYPE":"Edificio"}, "geometry": { "type": "Point", "coordinates": [ -93.1633663,16.7648524 ] }},
{ "type": "Feature", "properties": { "ADDRESS": " Vicente Gro., coloso ruta axtel, El Coloso, Acapulco, Gro., Mexico ", "STATUS":0, "NAME": "","MORE_INFO":"Grietas en fachadas y escaleras grietas profundas con rriesco a colapsar estaleras de acceso al edif. Etap 10 edif. 39 ","TYPE":"Edificio"}, "geometry": { "type": "Point", "coordinates": [ -99.8125646,16.846051 ] }},
{ "type": "Feature", "properties": { "ADDRESS": " Tabares & Aurora, El Coloso, Acapulco, Gro., Mexico ", "STATUS":0, "NAME": "","MORE_INFO":" Fracturas multiples en muros de carga, y desprendimientos de partes en cades de concreto ","TYPE":"Edificio"}, "geometry": { "type": "Point", "coordinates": [ -99.8136225,16.8560742 ] }},
{ "type": "Feature", "properties": { "ADDRESS": " Peña Blanca s/n, El Coloso, 39810 Acapulco, Gro., Mexico ", "STATUS":0, "NAME": "","MORE_INFO":" Grietas en escaleras y balcones. Podrían desprenderse balcones y caer al frente a algun traunseunte, escaleras podrían colapsar y evitar desalojo de Edificio en caso de un sismo ","TYPE":"Edificio"}, "geometry": { "type": "Point", "coordinates": [ -99.8166802,16.857814 ] }},
{ "type": "Feature", "properties": { "ADDRESS": " Mezquite 18, Monte Bello, 71230 Santa Cruz Xoxocotlán, Oax., Mexico ", "STATUS":0, "NAME": "","MORE_INFO":" Grietas visibles, caida de reboco ","TYPE":"Edificio"}, "geometry": { "type": "Point", "coordinates": [ -96.7542058,17.0270286 ] }},
{ "type": "Feature", "properties": { "ADDRESS": " Zaragoza 2, 1ra Secc del Casco de San Antonio de la Cal, 71236 San Antonio de la Cal, Oax., Mexico ", "STATUS":0, "NAME": "","MORE_INFO":"Grietas ","TYPE":"Edificio"}, "geometry": { "type": "Point", "coordinates": [ -96.6990246,17.0316239 ] }},
{ "type": "Feature", "properties": { "ADDRESS": " Lázaro Cárdes 0, Benito Juárez, 68100 Oaxaca, Oax., Mexico ", "STATUS":0, "NAME": "","MORE_INFO":"U pared caída 2 agrietadas total ","TYPE":"Edificio"}, "geometry": { "type": "Point", "coordinates": [ -96.7112829,17.0618449 ] }},
{ "type": "Feature", "properties": { "ADDRESS": " Argenti 310, America Sur, 68104 Oaxaca, Oax., Mexico ", "STATUS":0, "NAME": "","MORE_INFO":"Pared y techo con grietas ","TYPE":"Edificio"}, "geometry": { "type": "Point", "coordinates": [ -96.7085644,17.0690003 ] }},
{ "type": "Feature", "properties": { "ADDRESS": " Porfirio Díaz 21, La Peña, 69600 Asunción Nochixtlán, Oax., Mexico ", "STATUS":0, "NAME": "","MORE_INFO":"Grietas en la pared y techo ","TYPE":"Edificio"}, "geometry": { "type": "Point", "coordinates": [ -97.2218628,17.4587546 ] }},
{ "type": "Feature", "properties": { "ADDRESS": " 2 de Abril 1, Tepeyac, 69006 Huajuapam de León, Oax., Mexico ", "STATUS":0, "NAME": "","MORE_INFO":" hospital dañado, pxs en la calle ","TYPE":"Edificio"}, "geometry": { "type": "Point", "coordinates": [ -97.7885949,17.814413 ] }},
{ "type": "Feature", "properties": { "ADDRESS": " Av. 5 de Mayo 315, Centro, Ver., Mexico ", "STATUS":0, "NAME": "","MORE_INFO":"Derrumbe de techo ","TYPE":"Edificio"}, "geometry": { "type": "Point", "coordinates": [ -96.0006523,18.2747054 ] }},
{ "type": "Feature", "properties": { "ADDRESS": " Benito Juárez Oriente 46, Primera, San Gabriel Chilac, Pue., Mexico ", "STATUS":0, "NAME": "","MORE_INFO":"Caida de muro y grietas ","TYPE":"Edificio"}, "geometry": { "type": "Point", "coordinates": [ -97.3429101,18.3198107 ] }},
{ "type": "Feature", "properties": { "ADDRESS": " Morelos, Tlacotepec de Porfirio Díaz, Pue., Mexico ", "STATUS":0, "NAME": "","MORE_INFO":"Derrumbe total ","TYPE":"Edificio"}, "geometry": { "type": "Point", "coordinates": [ -96.851075,18.4031495 ] }},
{ "type": "Feature", "properties": { "ADDRESS": " Benito Juárez 101, Centro, 95100 Centro, Ver., Mexico ", "STATUS":0, "NAME": "","MORE_INFO":"Agrietamiento de paredes. ","TYPE":"Edificio"}, "geometry": { "type": "Point", "coordinates": [ -96.3607064,18.4465289 ] }},
{ "type": "Feature", "properties": { "ADDRESS": " Calle 11 Ote 504, Nicolás Bravo, Tehuacán, Pue., Mexico ", "STATUS":0, "NAME": "","MORE_INFO":"TECHO CUARTEADO Y CON SEPARACIN DE UNO O MAS CENTIMETOS PAREDES AGRIETADA ","TYPE":"Edificio"}, "geometry": { "type": "Point", "coordinates": [ -97.3893787,18.4542983 ] }},
{ "type": "Feature", "properties": { "ADDRESS": " Calle Moctezuma 18, Barrio de Veracruz, 62930 Jocatepec, Mor., Mexico ", "STATUS":0, "NAME": "","MORE_INFO":" ","TYPE":"Edificio"}, "geometry": { "type": "Point", "coordinates": [ -98.7972128,18.677816 ] }},
{ "type": "Feature", "properties": { "ADDRESS": " Ramón Maya 106, Lomas de Chapultepec, 62575 Independencia, Mor., Mexico ", "STATUS":0, "NAME": "","MORE_INFO":"se daño la estructura ya no es segura ","TYPE":"Edificio"}, "geometry": { "type": "Point", "coordinates": [ -99.1290069,18.8827976 ] }},
{ "type": "Feature", "properties": { "ADDRESS": " Civac, Jiutepec, Mor., Mexico ", "STATUS":0, "NAME": "","MORE_INFO":"Grietas en todos los Edificios departamentales ","TYPE":"Edificio"}, "geometry": { "type": "Point", "coordinates": [ -99.1719095,18.9117408 ] }},
{ "type": "Feature", "properties": { "ADDRESS": " Av. 16 de Septiembre, Luvianos, Méx., Mexico ", "STATUS":0, "NAME": "","MORE_INFO":"Muchas grietas techo pared ","TYPE":"Edificio"}, "geometry": { "type": "Point", "coordinates": [ -100.2974503,18.9233981 ] }},
{ "type": "Feature", "properties": { "ADDRESS": " Av. Compositores 207, Lomas de Coyuca, 62165 Cuervaca, Mor., Mexico ", "STATUS":0, "NAME": "","MORE_INFO":"Grietas estructurales en muros de los Edificios de este fracciomiento ","TYPE":"Edificio"}, "geometry": { "type": "Point", "coordinates": [ -99.2479635,18.9424654 ] }},
{ "type": "Feature", "properties": { "ADDRESS": " Ahuatlan 13, Real Tetela, 62158 Cuervaca, Mor., Mexico ", "STATUS":0, "NAME": "","MORE_INFO":" ","TYPE":"Edificio"}, "geometry": { "type": "Point", "coordinates": [ -99.2596495,18.9623318 ] }},
{ "type": "Feature", "properties": { "ADDRESS": " Avenida Universidad 708, Torres de la Universidad, 62100 Cuervaca, Mor., Mexico ", "STATUS":0, "NAME": "","MORE_INFO":"Grietas en Edificio ","TYPE":"Edificio"}, "geometry": { "type": "Point", "coordinates": [ -99.2458496,18.9757522 ] }},
{ "type": "Feature", "properties": { "ADDRESS": " Independencia, Tecomatlán, Méx., Mexico ", "STATUS":0, "NAME": "","MORE_INFO":"Total ","TYPE":"Edificio"}, "geometry": { "type": "Point", "coordinates": [ -99.5280588,18.9774211 ] }},
{ "type": "Feature", "properties": { "ADDRESS": " Fray Juan de Grijalva 2623, Tres Cruces, Puebla, Pue., Mexico ", "STATUS":0, "NAME": "","MORE_INFO":"Hay múltiples grietas en diversas habitaciones y las bardas de la casa ","TYPE":"Edificio"}, "geometry": { "type": "Point", "coordinates": [ -98.194019,18.9952803 ] }},
{ "type": "Feature", "properties": { "ADDRESS": " Del Bosque, Puebla, Pue., Mexico ", "STATUS":0, "NAME": "","MORE_INFO":"Varias grietas en mi casa ","TYPE":"Edificio"}, "geometry": { "type": "Point", "coordinates": [ -98.2203031,19.0110126 ] }},
{ "type": "Feature", "properties": { "ADDRESS": " Blvd. Kepler 400, Reserva Territorial Atlixcáyotl, Puebla, Pue., Mexico ", "STATUS":0, "NAME": "","MORE_INFO":"Daños en todos los departamentos y fisuras por fuera. ","TYPE":"Edificio"}, "geometry": { "type": "Point", "coordinates": [ -98.2327938,19.0240561 ] }},
{ "type": "Feature", "properties": { "ADDRESS": " Av. Juan de Palafox y Mendoza 3016, Sta Bárbara Nte, 72380 Puebla, Pue., Mexico ", "STATUS":0, "NAME": "","MORE_INFO":"Grietas en u pared ","TYPE":"Edificio"}, "geometry": { "type": "Point", "coordinates": [ -98.1782478,19.0342027 ] }},
{ "type": "Feature", "properties": { "ADDRESS": " Petlalcingo 100, La Paz, 72160 Puebla, Pue., Mexico ", "STATUS":0, "NAME": "","MORE_INFO":"Derrumbe de techo total ","TYPE":"Edificio"}, "geometry": { "type": "Point", "coordinates": [ -98.2237564,19.0530921 ] }},
{ "type": "Feature", "properties": { "ADDRESS": " Av 2 Pte 3314, Amor, 72140 Puebla, Pue., Mexico ", "STATUS":0, "NAME": "","MORE_INFO":"El Edificio del nivel bachillerato del liceo británico de México en la ciudad de puebla tiene daños considerable es un colegio ","TYPE":"Edificio"}, "geometry": { "type": "Point", "coordinates": [ -98.2220226,19.058649 ] }},
{ "type": "Feature", "properties": { "ADDRESS": " Calle 7 Pte. 717, Reforma Sur, 72160 Puebla, Pue., Mexico ", "STATUS":0, "NAME": "","MORE_INFO":"gritas que estan cerca de colums y que se ven de lado a lado de la pared ","TYPE":"Edificio"}, "geometry": { "type": "Point", "coordinates": [ -98.2407243,19.0630471 ] }},
{ "type": "Feature", "properties": { "ADDRESS": " Calle Jalapa 27, Independencia, 72150 Puebla, Pue., Mexico ", "STATUS":0, "NAME": "","MORE_INFO":"Grietas en la casa ","TYPE":"Edificio"}, "geometry": { "type": "Point", "coordinates": [ -98.247695,19.0712111 ] }},
{ "type": "Feature", "properties": { "ADDRESS": " Dalia 4606, Viveros del Valle, 72225 Puebla, Pue., Mexico ", "STATUS":0, "NAME": "","MORE_INFO":"Grietas en la pared ","TYPE":"Edificio"}, "geometry": { "type": "Point", "coordinates": [ -98.1474358,19.0715291 ] }},
{ "type": "Feature", "properties": { "ADDRESS": " Carmen Serdán 27, San José Cuatro Caminos, 72020 Puebla, Pue., Mexico ", "STATUS":0, "NAME": "","MORE_INFO":"Grietas en las esquis ","TYPE":"Edificio"}, "geometry": { "type": "Point", "coordinates": [ -98.2286569,19.0945954 ] }},
{ "type": "Feature", "properties": { "ADDRESS": " Sta Maria Jajalpa, 52320 Santa María Jajalpa, Méx., Mexico ", "STATUS":0, "NAME": "","MORE_INFO":"Se calló u barda frente a u escuela y aplastó un vehículo ","TYPE":"Edificio"}, "geometry": { "type": "Point", "coordinates": [ -99.5365338,19.1117934 ] }},
{ "type": "Feature", "properties": { "ADDRESS": " Calle Veracruz 106, Villa Milpa Alta, La Concepción, 12000 Ciudad de México, CDMX, Mexico ", "STATUS":0, "NAME": "","MORE_INFO":" Daños de grietas en paredes de recamaras y sala, patio de servicio y fachada. ","TYPE":"Edificio"}, "geometry": { "type": "Point", "coordinates": [ -99.0216534,19.1841483 ] }},
{ "type": "Feature", "properties": { "ADDRESS": " Chapultepec 5, Tlalmalco, 56700 Tlalmalco, Méx., Mexico ", "STATUS":0, "NAME": "","MORE_INFO":"Se cayo la barda hacia la casa cuarteo la barda de la recamara y quedó volando la venta solo la sostiene la parte de arriba se vino la barda con tierra hacia la casa ","TYPE":"Edificio"}, "geometry": { "type": "Point", "coordinates": [ -98.7938481,19.2060206 ] }},
{ "type": "Feature", "properties": { "ADDRESS": " Paseo de Chalco Norte, La Conchita, 56600 Chalco de Díaz Covarrubias, Méx., Mexico ", "STATUS":0, "NAME": "","MORE_INFO":"Se calló u barda de la escuela Albert Einstein. ","TYPE":"Edificio"}, "geometry": { "type": "Point", "coordinates": [ -98.8941696,19.2407249 ] }},
{ "type": "Feature", "properties": { "ADDRESS": " Calle Monte Blanco 1, San Lucas Xochimanca, 16300 Ciudad de México, CDMX, Mexico ", "STATUS":0, "NAME": "","MORE_INFO":"Derrumbe parcial de u cerca de piedra con riesgo de mayor derrumbe ","TYPE":"Edificio"}, "geometry": { "type": "Point", "coordinates": [ -99.1112247,19.2437784 ] }},
{ "type": "Feature", "properties": { "ADDRESS": " Hidalgo 0, Delegación Capultitlán, 50260 Toluca de Lerdo, Méx., Mexico ", "STATUS":0, "NAME": "","MORE_INFO":" Prácticamente se agrieto la planta baja de la edificación de la casa, la cual está construida en desniveles. Casi totalmente alrededor de la misma se pueden notar las grietas. ","TYPE":"Edificio"}, "geometry": { "type": "Point", "coordinates": [ -99.6622937,19.2507347 ] }},
{ "type": "Feature", "properties": { "ADDRESS": " San Gregorio Atlapulco, Ciudad de México, CDMX, Mexico ", "STATUS":0, "NAME": "","MORE_INFO":" ","TYPE":"Edificio"}, "geometry": { "type": "Point", "coordinates": [ -99.0557268,19.2531573 ] }},
{ "type": "Feature", "properties": { "ADDRESS": " 13 de Septiembre 52, San Gregorio Atlapulco, 16600 Ciudad de México, CDMX, Mexico ", "STATUS":0, "NAME": "","MORE_INFO":"Grietas y derrumbes de bardas ","TYPE":"Edificio"}, "geometry": { "type": "Point", "coordinates": [ -99.058399,19.2547953 ] }},
{ "type": "Feature", "properties": { "ADDRESS": " Emiliano Zapata, San Miguel Xico, Valle de Chalco Solidaridad, Méx., Mexico ", "STATUS":0, "NAME": "","MORE_INFO":"A punto de caerce algunos transformadores en los alrrededores de la colonia independencia ","TYPE":"Edificio"}, "geometry": { "type": "Point", "coordinates": [ -98.9483319,19.2581273 ] }},
{ "type": "Feature", "properties": { "ADDRESS": " Av. 16 de Septiembre 126, Xaltocan, 16090 Ciudad de México, CDMX, Mexico ", "STATUS":0, "NAME": "","MORE_INFO":"Barda de piedra parcialmente derrumbada y con daño estructural y potencial caída de más barda. Ayuda por favor no sabemos si quedo gente aplastada. ","TYPE":"Edificio"}, "geometry": { "type": "Point", "coordinates": [ -99.1042117,19.2589264 ] }},
{ "type": "Feature", "properties": { "ADDRESS": " Hacienda la Quemada 651, Andrés Moli Enríquez, 52149 Metepec, Méx., Mexico ", "STATUS":0, "NAME": "","MORE_INFO":"Dos grietas ","TYPE":"Edificio"}, "geometry": { "type": "Point", "coordinates": [ -99.5896151,19.2616103 ] }},
{ "type": "Feature", "properties": { "ADDRESS": " Girasol 7, San Marcos, 16050 Ciudad de México, CDMX, Mexico ", "STATUS":0, "NAME": "","MORE_INFO":"Cuarteaduras en pisos y paredes ","TYPE":"Edificio"}, "geometry": { "type": "Point", "coordinates": [ -99.1091809,19.2616464 ] }},
{ "type": "Feature", "properties": { "ADDRESS": " Dinteles 26, Jardines del Sur, 16050 Ciudad de México, CDMX, Mexico ", "STATUS":0, "NAME": "","MORE_INFO":"Grietas 2.5 mts de altura y de 3-4 mts de largo ","TYPE":"Edificio"}, "geometry": { "type": "Point", "coordinates": [ -99.118375,19.2617181 ] }},
{ "type": "Feature", "properties": { "ADDRESS": " Josefa Ortiz de Domínguez 213, La Santísima, 16080 Ciudad de México, CDMX, Mexico ", "STATUS":0, "NAME": "","MORE_INFO":"Grieta en la banqueta ","TYPE":"Edificio"}, "geometry": { "type": "Point", "coordinates": [ -99.0932622,19.2631585 ] }},
{ "type": "Feature", "properties": { "ADDRESS": " Josefa Ortiz de Domínguez 213, La Santísima, 16080 Ciudad de México, CDMX, Mexico ", "STATUS":0, "NAME": "","MORE_INFO":"Grieta en la banqueta q corre a la calle y afecta a 2 casas ","TYPE":"Edificio"}, "geometry": { "type": "Point", "coordinates": [ -99.0932622,19.2631585 ] }},
{ "type": "Feature", "properties": { "ADDRESS": " Avenida Mexico, Ciudad de México, CDMX, Mexico ", "STATUS":0, "NAME": "","MORE_INFO":"Se derrumbó el Edificio las bardas de la iglesia y la torre. En la calle había un mercado ambulante ","TYPE":"Edificio"}, "geometry": { "type": "Point", "coordinates": [ -99.1165283,19.2644672 ] }},
{ "type": "Feature", "properties": { "ADDRESS": " 1a. Cda. ranjo 5, Chalco Centro, 56600 Chalco de Díaz Covarrubias, Méx., Mexico ", "STATUS":0, "NAME": "","MORE_INFO":" De vino a bajo u barda de mi casa, y parte del cuarto de mi papa ","TYPE":"Edificio"}, "geometry": { "type": "Point", "coordinates": [ -98.9029505,19.2651293 ] }},
{ "type": "Feature", "properties": { "ADDRESS": " Calle Álvaro Obregón 50, Chalco Centro, 56604 Chalco de Díaz Covarrubias, Méx., Mexico ", "STATUS":0, "NAME": "","MORE_INFO":"Grietas en las paredes con un poco de escombro caído pantallas rotas castillo apuntó de caerse patio agrietado y en partes levantamiento del Cemento... ropero quebrado y la lavadora.. ","TYPE":"Edificio"}, "geometry": { "type": "Point", "coordinates": [ -98.8996482,19.2661856 ] }},
{ "type": "Feature", "properties": { "ADDRESS": " Niños Heroes, Ciudad de México, CDMX, Mexico ", "STATUS":0, "NAME": "","MORE_INFO":" Muy grave, secciones completas derribadas ","TYPE":"Edificio"}, "geometry": { "type": "Point", "coordinates": [ -99.1660657,19.2668858 ] }},
{ "type": "Feature", "properties": { "ADDRESS": " Puente, Cruz del Farol, 14248 Ciudad de México, CDMX, Mexico ", "STATUS":0, "NAME": "","MORE_INFO":"Se calleron los puentes entre Edificios del Tecnologico de monterret ccm ","TYPE":"Edificio"}, "geometry": { "type": "Point", "coordinates": [ -99.213321,19.270189 ] }},
{ "type": "Feature", "properties": { "ADDRESS": " David R. Scott 67, Volcanes, 14440 Ciudad de México, CDMX, Mexico ", "STATUS":0, "NAME": "","MORE_INFO":"Un Edificio en construcción abandodo se calleron paredes hay riesgo de que la estructura siga cayendo ","TYPE":"Edificio"}, "geometry": { "type": "Point", "coordinates": [ -99.1705798,19.2705921 ] }},
{ "type": "Feature", "properties": { "ADDRESS": " José María Morelos 101, San Mateo, 13040 Ciudad de México, CDMX, Mexico ", "STATUS":0, "NAME": "","MORE_INFO":"Techos destrozados bardas cuarteadas ivitable ","TYPE":"Edificio"}, "geometry": { "type": "Point", "coordinates": [ -98.9986992,19.2722244 ] }},
{ "type": "Feature", "properties": { "ADDRESS": " Camino Viejo a San Pedro Mártir 99, San Andrés Totoltepec, 14400 Ciudad de México, CDMX, Mexico ", "STATUS":0, "NAME": "","MORE_INFO":"Grietas pequeñas en todos los departamentos y pisos ","TYPE":"Edificio"}, "geometry": { "type": "Point", "coordinates": [ -99.1603422,19.2724097 ] }},
{ "type": "Feature", "properties": { "ADDRESS": " Circuito, San Andrés Totoltepec, 14400 Ciudad de México, CDMX, Mexico ", "STATUS":0, "NAME": "","MORE_INFO":"Grietas importante en la base de el Edificio varias de las paredes de la planta baja. Es un Edificio de tres niveles ","TYPE":"Edificio"}, "geometry": { "type": "Point", "coordinates": [ -99.1897135,19.2748317 ] }},
{ "type": "Feature", "properties": { "ADDRESS": " Antiguo Camino a San Pedro 99, Tlalpan, 14630 Ciudad de México, CDMX, Mexico ", "STATUS":0, "NAME": "","MORE_INFO":"Muchas grietas en áreas comunes y dentro de los departamentos ","TYPE":"Edificio"}, "geometry": { "type": "Point", "coordinates": [ -99.1641326,19.2769455 ] }},
{ "type": "Feature", "properties": { "ADDRESS": " Nicolás Bravo 130, Aldama, 16010 Ciudad de México, CDMX, Mexico ", "STATUS":0, "NAME": "","MORE_INFO":"Poste por caer y calle levantada por varios metros ","TYPE":"Edificio"}, "geometry": { "type": "Point", "coordinates": [ -99.1306409,19.277299 ] }},
{ "type": "Feature", "properties": { "ADDRESS": " Av. Xicotencatl 310, Jardin, 56617 Valle de Chalco Solidaridad, Méx., Mexico ", "STATUS":0, "NAME": "","MORE_INFO":"El Edificio se enclino y u parte esta recargada en la barda de la casa colindante. ","TYPE":"Edificio"}, "geometry": { "type": "Point", "coordinates": [ -98.938788,19.2791449 ] }},
{ "type": "Feature", "properties": { "ADDRESS": " Michoacán 16, La Joya, 14090 La Joya, CDMX, Mexico ", "STATUS":0, "NAME": "","MORE_INFO":"Barda de casa de 4.5 metros de altura es de tipo escalodo y se alcanza a ver hacia afuera de la casa soporta puerta de madera de 3 metros de largo y 6 metros de altura. También presenta grieta en el marco de la puerta. En la base de la barda está el tanque de gay estaciol de 100 L tiene un cuarto de su capacidad. ","TYPE":"Edificio"}, "geometry": { "type": "Point", "coordinates": [ -99.1662883,19.2792871 ] }},
{ "type": "Feature", "properties": { "ADDRESS": " Congreso 113, Tlalpan Centro II, 14000 Ciudad de México, CDMX, Mexico ", "STATUS":0, "NAME": "","MORE_INFO":"Fisuras en gran parte de los muros. Están a 45 grados de piso a losa en algunos casos ","TYPE":"Edificio"}, "geometry": { "type": "Point", "coordinates": [ -99.1682004,19.2803318 ] }},
{ "type": "Feature", "properties": { "ADDRESS": " Rincón Sur 15, Bosque del Sur, 16010 Ciudad de México, CDMX, Mexico ", "STATUS":0, "NAME": "","MORE_INFO":"Grietas y pequeños derrumbes ","TYPE":"Edificio"}, "geometry": { "type": "Point", "coordinates": [ -99.1322681,19.2805897 ] }},
{ "type": "Feature", "properties": { "ADDRESS": " Rincón Sur 15, Bosque del Sur, 16010 Ciudad de México, CDMX, Mexico ", "STATUS":0, "NAME": "","MORE_INFO":"Gritas en Edificio y escaleras derrumbes de fachadas ","TYPE":"Edificio"}, "geometry": { "type": "Point", "coordinates": [ -99.1322681,19.2805897 ] }},
{ "type": "Feature", "properties": { "ADDRESS": " Benito Juárez 550, Miguel Hidalgo 3ra Secc, 14250 Ciudad de México, CDMX, Mexico ", "STATUS":0, "NAME": "","MORE_INFO":" Fractura en la estructura de escaleras, paredes, y y afectaciones a departamentos en general. ","TYPE":"Edificio"}, "geometry": { "type": "Point", "coordinates": [ -99.2096257,19.2842714 ] }},
{ "type": "Feature", "properties": { "ADDRESS": " Progreso 218, Miguel Hidalgo 1ra Secc, 14260 Ciudad de México, CDMX, Mexico ", "STATUS":0, "NAME": "","MORE_INFO":"Muchas grietas ","TYPE":"Edificio"}, "geometry": { "type": "Point", "coordinates": [ -99.1886134,19.2846865 ] }},
{ "type": "Feature", "properties": { "ADDRESS": " Chilapa 98, Tlalpan Centro II, 14000 Ciudad de México, CDMX, Mexico ", "STATUS":0, "NAME": "","MORE_INFO":"Grietas ","TYPE":"Edificio"}, "geometry": { "type": "Point", "coordinates": [ -99.1715587,19.2856045 ] }},
{ "type": "Feature", "properties": { "ADDRESS": " Sur 4 5, Niños Heroes, 56610 Valle de Chalco Solidaridad, Méx., Mexico ", "STATUS":0, "NAME": "","MORE_INFO":"fue grave ","TYPE":"Edificio"}, "geometry": { "type": "Point", "coordinates": [ -98.9487271,19.285681 ] }},
{ "type": "Feature", "properties": { "ADDRESS": " Calle Parque el Sacromonte, 50100 Toluca de Lerdo, Méx., Mexico ", "STATUS":0, "NAME": "","MORE_INFO":"Colapso de torre capario ","TYPE":"Edificio"}, "geometry": { "type": "Point", "coordinates": [ -99.6909216,19.2860141 ] }},
{ "type": "Feature", "properties": { "ADDRESS": " Vasco de Quiroga 417, Barrio de San Berrdino, 50080 Toluca de Lerdo, Méx., Mexico ", "STATUS":0, "NAME": "","MORE_INFO":" Pequeñas fisuras en algus paredes de los departamentos y algunos por las escaleras tanto del Edificio como del domicilio, y fisuras más prolongadas en uno de los extremos del Edificio. ","TYPE":"Edificio"}, "geometry": { "type": "Point", "coordinates": [ -99.6690901,19.2867675 ] }},
{ "type": "Feature", "properties": { "ADDRESS": " Av. Sire, Col del Mar, 13270 Ciudad de México, CDMX, Mexico ", "STATUS":0, "NAME": "","MORE_INFO":"Grieta de aproximadamente 100 metros es toda u cuadra en la que se formo la grieta dañando toda la calle . la grieta se abrió en dos lados dejando el centro abierto provocando desnivel. ","TYPE":"Edificio"}, "geometry": { "type": "Point", "coordinates": [ -99.0603633,19.2869132 ] }},
{ "type": "Feature", "properties": { "ADDRESS": " Lagu del Ensueño 201, Selene 2da Secc, 13420 Ciudad de México, CDMX, Mexico ", "STATUS":0, "NAME": "","MORE_INFO":"La escalera del ingreso al domicilio y las colums que sostienen el mismo ","TYPE":"Edificio"}, "geometry": { "type": "Point", "coordinates": [ -99.002932,19.287281 ] }},
{ "type": "Feature", "properties": { "ADDRESS": " Lagu del Ensueño 201, Selene 2da Secc, 13420 Ciudad de México, CDMX, Mexico ", "STATUS":0, "NAME": "","MORE_INFO":"Se partió la escalera del ingreso a mi domicilio y las colums que la sostienen además de u grieta en el interior del mismo ","TYPE":"Edificio"}, "geometry": { "type": "Point", "coordinates": [ -99.002932,19.287281 ] }},
{ "type": "Feature", "properties": { "ADDRESS": " Forestal 127, Guadalupe Tlalpan, 14389 Ciudad de México, CDMX, Mexico ", "STATUS":0, "NAME": "","MORE_INFO":"Se trata de Edificios con 96 departamentos principalmente en el area de las ventas hay grietas que corren hasta el piso que se observan por dentro y fuera de los departamentos. ","TYPE":"Edificio"}, "geometry": { "type": "Point", "coordinates": [ -99.148676,19.2875217 ] }},
{ "type": "Feature", "properties": { "ADDRESS": " Miguel Hidalgo, Ciudad de México, CDMX, Mexico ", "STATUS":0, "NAME": "","MORE_INFO":"Caída de fachada ","TYPE":"Edificio"}, "geometry": { "type": "Point", "coordinates": [ -99.1623562,19.2877345 ] }},
{ "type": "Feature", "properties": { "ADDRESS": " Oceano de las Tempestades, Ciudad de México, CDMX, Mexico ", "STATUS":0, "NAME": "","MORE_INFO":"Banquetas agrietadas y casas cuartiadas el suelo se hundio ","TYPE":"Edificio"}, "geometry": { "type": "Point", "coordinates": [ -98.9998581,19.2877586 ] }},
{ "type": "Feature", "properties": { "ADDRESS": " Calle Gita & Av Aleta, Col del Mar, 13270 Ciudad de México, CDMX, Mexico ", "STATUS":0, "NAME": "","MORE_INFO":"Daños en casas oficis y calle por grietas ","TYPE":"Edificio"}, "geometry": { "type": "Point", "coordinates": [ -99.063358,19.2878669 ] }},
{ "type": "Feature", "properties": { "ADDRESS": " Calle 4 65, Fraternidad Antorchista, 56605 Chalco de Díaz Covarrubias, Méx., Mexico ", "STATUS":0, "NAME": "","MORE_INFO":"Grieta grande abrio la e la mitad ","TYPE":"Edificio"}, "geometry": { "type": "Point", "coordinates": [ -98.8960678,19.287939 ] }},
{ "type": "Feature", "properties": { "ADDRESS": " Calle 4 65, Fraternidad Antorchista, 56605 Chalco de Díaz Covarrubias, Méx., Mexico ", "STATUS":0, "NAME": "","MORE_INFO":"Grieta grande abrio la pared a la mitad ","TYPE":"Edificio"}, "geometry": { "type": "Point", "coordinates": [ -98.8960678,19.287939 ] }},
{ "type": "Feature", "properties": { "ADDRESS": " Pez Vela 1, Col del Mar, 13270 Ciudad de México, CDMX, Mexico ", "STATUS":0, "NAME": "","MORE_INFO":"Grieta a la entrada de la casa y muros ","TYPE":"Edificio"}, "geometry": { "type": "Point", "coordinates": [ -99.0606015,19.2883807 ] }},
{ "type": "Feature", "properties": { "ADDRESS": " Pez Vela 3, Col del Mar, 13270 Ciudad de México, CDMX, Mexico ", "STATUS":0, "NAME": "","MORE_INFO":"Grietas en muros y pisos ","TYPE":"Edificio"}, "geometry": { "type": "Point", "coordinates": [ -99.0606015,19.2883807 ] }},
{ "type": "Feature", "properties": { "ADDRESS": " Montes Cárpatos 78, Selene 2da Secc, 13420 Ciudad de México, CDMX, Mexico ", "STATUS":0, "NAME": "","MORE_INFO":" Gritas, fuga de agua, falta de luz. ","TYPE":"Edificio"}, "geometry": { "type": "Point", "coordinates": [ -99.0069827,19.2884396 ] }},
{ "type": "Feature", "properties": { "ADDRESS": " Calle Delfin MZ79 LT7, Col del Mar, 13270 Ciudad de México, CDMX, Mexico ", "STATUS":0, "NAME": "","MORE_INFO":"Grieta en dirección a la calle tiburón de 2 m de largo y dos bardas quebradas ","TYPE":"Edificio"}, "geometry": { "type": "Point", "coordinates": [ -99.0597696,19.2885185 ] }},
{ "type": "Feature", "properties": { "ADDRESS": " Calle Delfin MZ79 LT7, Col del Mar, 13270 Ciudad de México, CDMX, Mexico ", "STATUS":0, "NAME": "","MORE_INFO":"Grietas de 3 metros 2 bardas trodas ","TYPE":"Edificio"}, "geometry": { "type": "Point", "coordinates": [ -99.0597696,19.2885185 ] }},
{ "type": "Feature", "properties": { "ADDRESS": " Bochil, Ciudad de México, CDMX, Mexico ", "STATUS":0, "NAME": "","MORE_INFO":"Cuatiaduras horizontales en las estructuras: Biblioteca ciberescuela centro de artes y oficios y comedor popular todas con los mismos daños. ","TYPE":"Edificio"}, "geometry": { "type": "Point", "coordinates": [ -99.2247696,19.2889641 ] }},
{ "type": "Feature", "properties": { "ADDRESS": " Bochil, Ciudad de México, CDMX, Mexico ", "STATUS":0, "NAME": "","MORE_INFO":"Grietas horizontales en todas las estructuras ","TYPE":"Edificio"}, "geometry": { "type": "Point", "coordinates": [ -99.2247696,19.2889641 ] }},
{ "type": "Feature", "properties": { "ADDRESS": " Calz México-Xochimilco 289, Guadalupe Tlalpan, 14389 Ciudad de México, CDMX, Mexico ", "STATUS":0, "NAME": "","MORE_INFO":" Puertas asentadas, vidrios y techos caídos, grandes grietas ","TYPE":"Edificio"}, "geometry": { "type": "Point", "coordinates": [ -99.1489926,19.28906 ] }},
{ "type": "Feature", "properties": { "ADDRESS": " Esteban Chavero 27, Ojo de Agua, 13450 Ciudad de México, CDMX, Mexico ", "STATUS":0, "NAME": "","MORE_INFO":"Transformado a punto de caer ","TYPE":"Edificio"}, "geometry": { "type": "Point", "coordinates": [ -99.0134042,19.2897419 ] }},
{ "type": "Feature", "properties": { "ADDRESS": " México 15 & Calle Eduardo Gonzalez y Pichardo, Barrio de la Merced, 50080 Toluca de Lerdo, Méx., Mexico ", "STATUS":0, "NAME": "","MORE_INFO":"Grietas en muros y escaleras ","TYPE":"Edificio"}, "geometry": { "type": "Point", "coordinates": [ -99.663802,19.2900421 ] }},
{ "type": "Feature", "properties": { "ADDRESS": " Vasco de Quiroga 184, Belisario Domínguez Secc 16, 14080 Ciudad de México, CDMX, Mexico ", "STATUS":0, "NAME": "","MORE_INFO":"Grietas largas y diagoles en muros ","TYPE":"Edificio"}, "geometry": { "type": "Point", "coordinates": [ -99.1549331,19.2904159 ] }},
{ "type": "Feature", "properties": { "ADDRESS": " Calle José María González Arratia 206, Reforma y FFCC cioles, 50090 Toluca de Lerdo, Méx., Mexico ", "STATUS":0, "NAME": "","MORE_INFO":"Grietas en el Edificio en la azotea y azulejos levantados ","TYPE":"Edificio"}, "geometry": { "type": "Point", "coordinates": [ -99.6444326,19.291417 ] }},
{ "type": "Feature", "properties": { "ADDRESS": " Niños Héroes, Ojuelos, 51356 San Miguel Zicantepec, Méx., Mexico ", "STATUS":0, "NAME": "","MORE_INFO":"Grietas ","TYPE":"Edificio"}, "geometry": { "type": "Point", "coordinates": [ -99.6967834,19.2914925 ] }},
{ "type": "Feature", "properties": { "ADDRESS": " Nicolás Bravo, Toluca de Lerdo, Méx., Mexico ", "STATUS":0, "NAME": "","MORE_INFO":" Daño a la estructura, agrietamientos. ","TYPE":"Edificio"}, "geometry": { "type": "Point", "coordinates": [ -99.6828189,19.291875 ] }},
{ "type": "Feature", "properties": { "ADDRESS": " Av. el Río 58, rciso Mendoza, 14390 Ciudad de México, CDMX, Mexico ", "STATUS":0, "NAME": "","MORE_INFO":" ","TYPE":"Edificio"}, "geometry": { "type": "Point", "coordinates": [ -99.1199053,19.2922528 ] }},
{ "type": "Feature", "properties": { "ADDRESS": " Boca Juniors 1, Arboledas del Sur, 14376 Ciudad de México, CDMX, Mexico ", "STATUS":0, "NAME": "","MORE_INFO":"Se cayeron dos tramos de la barda de la escuela de cruz azul ","TYPE":"Edificio"}, "geometry": { "type": "Point", "coordinates": [ -99.1403841,19.2926294 ] }},
{ "type": "Feature", "properties": { "ADDRESS": " Altillo 69, rciso Mendoza Super Manza 5 Villa Coapa, 14390 Ciudad de México, CDMX, Mexico ", "STATUS":0, "NAME": "","MORE_INFO":"Daño en las escaleras grietas ","TYPE":"Edificio"}, "geometry": { "type": "Point", "coordinates": [ -99.1288169,19.2930176 ] }},
{ "type": "Feature", "properties": { "ADDRESS": " Vicente Guerrero 44, Guadalupe, 13450 Ciudad de México, CDMX, Mexico ", "STATUS":0, "NAME": "","MORE_INFO":"Un cacho de concreto se calló y agrieto las. Paredez ","TYPE":"Edificio"}, "geometry": { "type": "Point", "coordinates": [ -99.0152843,19.2939262 ] }},
{ "type": "Feature", "properties": { "ADDRESS": " Las Bodas de Figaro 55, Santa A Poniente, 13300 Ciudad de México, CDMX, Mexico ", "STATUS":0, "NAME": "","MORE_INFO":"Edificios inclidos grietas pared derrumbada falta de luz ","TYPE":"Edificio"}, "geometry": { "type": "Point", "coordinates": [ -99.0448114,19.2952835 ] }},
{ "type": "Feature", "properties": { "ADDRESS": " San Juan de Dios 50, Toriello Guerra, 14050 Ciudad de México, CDMX, Mexico ", "STATUS":0, "NAME": "","MORE_INFO":"Grietas a lo largo de diez pisos ","TYPE":"Edificio"}, "geometry": { "type": "Point", "coordinates": [ -99.1575258,19.2956666 ] }},
{ "type": "Feature", "properties": { "ADDRESS": " Nte 18, Valle de Chalco Solidaridad, Méx., Mexico ", "STATUS":0, "NAME": "","MORE_INFO":"PELIGROSOS TRANSFORMADORES MOVIDOS DE SU LUGAR Y APUNTO DE CAER PUEDEN CREAR CORTO CIRCUITO ","TYPE":"Edificio"}, "geometry": { "type": "Point", "coordinates": [ -98.9366348,19.2958458 ] }},
{ "type": "Feature", "properties": { "ADDRESS": " Entre la Calz del Hueso, Anillo Periferico Esqui Texmelucan 7650, Igcio Chavez, 14339 Ciudad de México, CDMX, Mexico ", "STATUS":0, "NAME": "","MORE_INFO":" Caida de bardas, sin persos lesiodas ","TYPE":"Edificio"}, "geometry": { "type": "Point", "coordinates": [ -99.1050663,19.2975253 ] }},
{ "type": "Feature", "properties": { "ADDRESS": " Soledad 3, San Nicolás Totolapan, 10900 Ciudad de México, CDMX, Mexico ", "STATUS":0, "NAME": "","MORE_INFO":"Fisuras en paredes ","TYPE":"Edificio"}, "geometry": { "type": "Point", "coordinates": [ -99.233973,19.2978633 ] }},
{ "type": "Feature", "properties": { "ADDRESS": " Río Azul MZ86 LT15, Valle de San Lorenzo, 09970 Ciudad de México, CDMX, Mexico ", "STATUS":0, "NAME": "","MORE_INFO":"Grietas en distintos muros. ","TYPE":"Edificio"}, "geometry": { "type": "Point", "coordinates": [ -99.0777836,19.2980917 ] }},
{ "type": "Feature", "properties": { "ADDRESS": " Oyamel, Ciudad de México, CDMX, Mexico ", "STATUS":0, "NAME": "","MORE_INFO":"Grietas en el suelo y en paredes ","TYPE":"Edificio"}, "geometry": { "type": "Point", "coordinates": [ -99.0676508,19.2986593 ] }},
{ "type": "Feature", "properties": { "ADDRESS": " Rancho Tlamapa 75, Nueva Oriental Coapa, 14300 Ciudad de México, CDMX, Mexico ", "STATUS":0, "NAME": "","MORE_INFO":"Se cayo 1barda sobre un vehiculo no hay heridos solo daños en la estructura y el auto ","TYPE":"Edificio"}, "geometry": { "type": "Point", "coordinates": [ -99.1273931,19.2995346 ] }},
{ "type": "Feature", "properties": { "ADDRESS": " Nte. 1 208, Isidro Fabela, 14030 Ciudad de México, CDMX, Mexico ", "STATUS":0, "NAME": "","MORE_INFO":"Leve a moderado ","TYPE":"Edificio"}, "geometry": { "type": "Point", "coordinates": [ -99.1711958,19.2999245 ] }},
{ "type": "Feature", "properties": { "ADDRESS": " Anáhuac 15, El Mirador, 04950 Ciudad de México, CDMX, Mexico ", "STATUS":0, "NAME": "","MORE_INFO":" Fugas de agua, grietas en el piso y levantamiento de azulejos en la planta baja. ","TYPE":"Edificio"}, "geometry": { "type": "Point", "coordinates": [ -99.1095317,19.3000111 ] }},
{ "type": "Feature", "properties": { "ADDRESS": " 90110, Orquídeas, La Trinidad Tepehitec, 90115 Tlaxcala de Xicohténcatl, Tlax., Mexico ", "STATUS":0, "NAME": "","MORE_INFO":" Grietas en toda la parte alta y u grieta por dentro y por fuera, escaleras con grietas ","TYPE":"Edificio"}, "geometry": { "type": "Point", "coordinates": [ -98.249022,19.3009239 ] }},
{ "type": "Feature", "properties": { "ADDRESS": " Rcda. de Sta. Teresa 1025, Faroles del Pedregal, 14018 Ciudad de México, CDMX, Mexico ", "STATUS":0, "NAME": "","MORE_INFO":"Grietas en el interior delvEdificio ","TYPE":"Edificio"}, "geometry": { "type": "Point", "coordinates": [ -99.1978616,19.3012188 ] }},
{ "type": "Feature", "properties": { "ADDRESS": " Calle Alborada 124, Parques del Pedregal, 14250 Ciudad de México, CDMX, Mexico ", "STATUS":0, "NAME": "","MORE_INFO":"Grietas ","TYPE":"Edificio"}, "geometry": { "type": "Point", "coordinates": [ -99.1872545,19.3015328 ] }},
{ "type": "Feature", "properties": { "ADDRESS": " Av. de la Alborada 144, Parques del Pedregal, 14010 Ciudad de México, CDMX, Mexico ", "STATUS":0, "NAME": "","MORE_INFO":"Al interior del edifico y dentro de los departamentos hay grietas de varias longitudes prácticamente en todas las paredes ","TYPE":"Edificio"}, "geometry": { "type": "Point", "coordinates": [ -99.1904341,19.3015444 ] }},
{ "type": "Feature", "properties": { "ADDRESS": " Calz. del Hueso, Ciudad de México, CDMX, Mexico ", "STATUS":0, "NAME": "","MORE_INFO":"Prepa 5 con daños en los Edificios ","TYPE":"Edificio"}, "geometry": { "type": "Point", "coordinates": [ -99.117863,19.3016969 ] }},
{ "type": "Feature", "properties": { "ADDRESS": " Periferico Sur 4828, Parques del Pedregal, 04500 Ciudad de México, CDMX, Mexico ", "STATUS":0, "NAME": "","MORE_INFO":"Daño a muros y escaleras ","TYPE":"Edificio"}, "geometry": { "type": "Point", "coordinates": [ -99.1892189,19.3023312 ] }},
{ "type": "Feature", "properties": { "ADDRESS": " Pico de Verapaz 449, Jardines en la Montaña, 14210 Ciudad de México, CDMX, Mexico ", "STATUS":0, "NAME": "","MORE_INFO":"Muchas grietas dentro de los 22 departamentos ","TYPE":"Edificio"}, "geometry": { "type": "Point", "coordinates": [ -99.202833,19.30365 ] }},
{ "type": "Feature", "properties": { "ADDRESS": " Ocaso 11, Insurgentes Cuicuilco, 04530 Ciudad de México, CDMX, Mexico ", "STATUS":0, "NAME": "","MORE_INFO":"Varias grietas ","TYPE":"Edificio"}, "geometry": { "type": "Point", "coordinates": [ -99.180816,19.3039174 ] }},
{ "type": "Feature", "properties": { "ADDRESS": " Ocaso 20, Insurgentes Cuicuilco, 04530 Ciudad de México, CDMX, Mexico ", "STATUS":0, "NAME": "","MORE_INFO":" En el Edificio y en mi departamento hay muchas grietas, se cayo el yeso de las paredes y el azulejo del departamento se despegó ","TYPE":"Edificio"}, "geometry": { "type": "Point", "coordinates": [ -99.1813002,19.3046436 ] }},
{ "type": "Feature", "properties": { "ADDRESS": " Du 16, Insurgentes Cuicuilco, 04530 Ciudad de México, CDMX, Mexico ", "STATUS":0, "NAME": "","MORE_INFO":"El Edificio y adentro de los departamentos presentan grietas ","TYPE":"Edificio"}, "geometry": { "type": "Point", "coordinates": [ -99.1806744,19.3050774 ] }},
{ "type": "Feature", "properties": { "ADDRESS": " Du 16, Insurgentes Cuicuilco, 04530 Ciudad de México, CDMX, Mexico ", "STATUS":0, "NAME": "","MORE_INFO":"Multiples Grietas en cada departamento ","TYPE":"Edificio"}, "geometry": { "type": "Point", "coordinates": [ -99.1806744,19.3050774 ] }},
{ "type": "Feature", "properties": { "ADDRESS": " Av. Cal de Miramontes 3004, Girasoles II, 04920 Ciudad de México, CDMX, Mexico ", "STATUS":0, "NAME": "","MORE_INFO":"Muchas fisuras horizontales algus diagoles. Daño a la fachada edifico contiguo recargado ","TYPE":"Edificio"}, "geometry": { "type": "Point", "coordinates": [ -99.1242272,19.3057609 ] }},
{ "type": "Feature", "properties": { "ADDRESS": " San Adrian 652, Pedregal de Sta Úrsula, 04600 Ciudad de México, CDMX, Mexico ", "STATUS":0, "NAME": "","MORE_INFO":"En segundo nivel hay grietas o fisuras en 2 muros de u habitación ","TYPE":"Edificio"}, "geometry": { "type": "Point", "coordinates": [ -99.1486635,19.3058819 ] }},
{ "type": "Feature", "properties": { "ADDRESS": " José va 250, San Miguel, Santa Catari Yecahuitzotl, CDMX, Mexico ", "STATUS":0, "NAME": "","MORE_INFO":"Hubo un poste dañado afuera de nuestra vivienda el cual si nos preocupa y pequeñas grietas dentro de la vivienda... ","TYPE":"Edificio"}, "geometry": { "type": "Point", "coordinates": [ -98.966212,19.3062053 ] }},
{ "type": "Feature", "properties": { "ADDRESS": " Buevista 39, Sta. Úrsula Coapa, 04650 Ciudad de México, CDMX, Mexico ", "STATUS":0, "NAME": "","MORE_INFO":" paredes recargadas y movidas de lugar, la casa se inclinó y hay demasiadas grietas, u de las paredes está sepada y se cuela agua hacia la toma de luz ","TYPE":"Edificio"}, "geometry": { "type": "Point", "coordinates": [ -99.147465,19.3066327 ] }},
{ "type": "Feature", "properties": { "ADDRESS": " Rancho Miradores 112, Girasoles III, 04920 Ciudad de México, CDMX, Mexico ", "STATUS":0, "NAME": "","MORE_INFO":" Grietas en el Edificio, departamentos y estaciomiento ","TYPE":"Edificio"}, "geometry": { "type": "Point", "coordinates": [ -99.126825,19.3070856 ] }},
{ "type": "Feature", "properties": { "ADDRESS": " Pino Suárez 37, San Antonio, 09900 Ciudad de México, CDMX, Mexico ", "STATUS":0, "NAME": "","MORE_INFO":"Fractura de muros de carga y hundimiento de piso ruptura de tubería ","TYPE":"Edificio"}, "geometry": { "type": "Point", "coordinates": [ -99.0692945,19.3072864 ] }},
{ "type": "Feature", "properties": { "ADDRESS": " Pino Suárez 37, San Antonio, 09900 Ciudad de México, CDMX, Mexico ", "STATUS":0, "NAME": "","MORE_INFO":"Hundimiento y fractura de muros de carga ","TYPE":"Edificio"}, "geometry": { "type": "Point", "coordinates": [ -99.0692945,19.3072864 ] }},
{ "type": "Feature", "properties": { "ADDRESS": " Rafael Oropeza 58, San Miguel, 13070 Santa Catari Yecahuitzotl, CDMX, Mexico ", "STATUS":0, "NAME": "","MORE_INFO":"Grieta en colum de casa ","TYPE":"Edificio"}, "geometry": { "type": "Point", "coordinates": [ -98.9705659,19.307627 ] }},
{ "type": "Feature", "properties": { "ADDRESS": " San Jorge 643, Pedregal de Sta Úrsula, 04600 Ciudad de México, CDMX, Mexico ", "STATUS":0, "NAME": "","MORE_INFO":"se generaron pequeñas grietas en techos ","TYPE":"Edificio"}, "geometry": { "type": "Point", "coordinates": [ -99.1549338,19.3077428 ] }},
{ "type": "Feature", "properties": { "ADDRESS": " Lerdo 284, Barrio San Francisco, 10500 Ciudad de México, CDMX, Mexico ", "STATUS":0, "NAME": "","MORE_INFO":"Grieta profunda en la pared y techos de los departamentos en el Edificio Presidente Juárez Nonoalco Tlatelolco. ","TYPE":"Edificio"}, "geometry": { "type": "Point", "coordinates": [ -99.239551,19.3078264 ] }},
{ "type": "Feature", "properties": { "ADDRESS": " Lerdo 284, Barrio San Francisco, 10500 Ciudad de México, CDMX, Mexico ", "STATUS":0, "NAME": "","MORE_INFO":"Grietas profundas en pared y techos de los departamentos del Edificio ","TYPE":"Edificio"}, "geometry": { "type": "Point", "coordinates": [ -99.239551,19.3078264 ] }},
{ "type": "Feature", "properties": { "ADDRESS": " Rancho San Lorenzo 62, Girasoles III, 04920 Ciudad de México, CDMX, Mexico ", "STATUS":0, "NAME": "","MORE_INFO":"Grietas exterior Edificio interior primer piso muros caidos ","TYPE":"Edificio"}, "geometry": { "type": "Point", "coordinates": [ -99.125639,19.3087867 ] }},
{ "type": "Feature", "properties": { "ADDRESS": " Allende 101, Sta. Úrsula Coapa, 04650 Ciudad de México, CDMX, Mexico ", "STATUS":0, "NAME": "","MORE_INFO":"Derrumbe parcial de barda ","TYPE":"Edificio"}, "geometry": { "type": "Point", "coordinates": [ -99.1427597,19.3089226 ] }},
{ "type": "Feature", "properties": { "ADDRESS": " Av. del Iman 660, Ajusco, 04700 Ciudad de México, CDMX, Mexico ", "STATUS":0, "NAME": "","MORE_INFO":"Edificio 30 afectado por grietas ","TYPE":"Edificio"}, "geometry": { "type": "Point", "coordinates": [ -99.1745446,19.3095315 ] }},
{ "type": "Feature", "properties": { "ADDRESS": " Fuente de Los Molinos 13, Pedregal del Lago, 14110 Ciudad de México, CDMX, Mexico ", "STATUS":0, "NAME": "","MORE_INFO":"Grieta en pared de departamento en piso 3 de un Edificio de 20 pisos. Nos alarma porque es en un piso bajo que podría poner en riesgo todo el Edificio. ","TYPE":"Edificio"}, "geometry": { "type": "Point", "coordinates": [ -99.2238554,19.310229 ] }},
{ "type": "Feature", "properties": { "ADDRESS": " Altavista 105, Heroes de Padier, 10700 Ciudad de México, CDMX, Mexico ", "STATUS":0, "NAME": "","MORE_INFO":"Grietas fuertes en muros estructurales ","TYPE":"Edificio"}, "geometry": { "type": "Point", "coordinates": [ -99.2271845,19.3116942 ] }},
{ "type": "Feature", "properties": { "ADDRESS": " Fresno, Lomas de San Berbé, 10350 Ciudad de México, CDMX, Mexico ", "STATUS":0, "NAME": "","MORE_INFO":"Casas agrietadas ","TYPE":"Edificio"}, "geometry": { "type": "Point", "coordinates": [ -99.2621734,19.3130505 ] }},
{ "type": "Feature", "properties": { "ADDRESS": " Cornejal 0, San Berbé Ocotepec, 10300 Ciudad de México, CDMX, Mexico ", "STATUS":0, "NAME": "","MORE_INFO":" La casa de mi familia se está callendo, necesito ayuda ","TYPE":"Edificio"}, "geometry": { "type": "Point", "coordinates": [ -99.2575849,19.3145486 ] }},
{ "type": "Feature", "properties": { "ADDRESS": " Iztapalapa 55, La Polvorilla, Ciudad de México, CDMX, Mexico ", "STATUS":0, "NAME": "","MORE_INFO":"Grieta en barda exterior ","TYPE":"Edificio"}, "geometry": { "type": "Point", "coordinates": [ -99.0411708,19.3154427 ] }},
{ "type": "Feature", "properties": { "ADDRESS": " Av. Oaxaca 193, San Jerónimo Aculco, Ciudad de México, CDMX, Mexico ", "STATUS":0, "NAME": "","MORE_INFO":"Un lado del Edificio tiene muchas cuarteadas ","TYPE":"Edificio"}, "geometry": { "type": "Point", "coordinates": [ -99.2228656,19.315821 ] }},
{ "type": "Feature", "properties": { "ADDRESS": " Calz. de Tlalpan 2905, El Reloj, 04640 Ciudad de México, CDMX, Mexico ", "STATUS":0, "NAME": "","MORE_INFO":"Grietas en los muros ","TYPE":"Edificio"}, "geometry": { "type": "Point", "coordinates": [ -99.1396405,19.3167242 ] }},
{ "type": "Feature", "properties": { "ADDRESS": "Lomas Estrella 2da Secc ", "STATUS":0, "NAME": "","MORE_INFO":" Se llegó a identificar u cuartada en u pared con ligero desprendimiento de la misma, cuarto ubicado en segunda planta ","TYPE":"Edificio"}, "geometry": { "type": "Point", "coordinates": [ -99.0580072,19.3167712 ] }},
{ "type": "Feature", "properties": { "ADDRESS": " Efeso 25, Lomas Estrella 2da Secc, 09890 Ciudad de México, CDMX, Mexico ", "STATUS":0, "NAME": "","MORE_INFO":"Grietas en la pared y en la fachada ","TYPE":"Edificio"}, "geometry": { "type": "Point", "coordinates": [ -99.0964081,19.3182382 ] }},
{ "type": "Feature", "properties": { "ADDRESS": " Tihuatlán 41, San Jerónimo Aculco, Ciudad de México, CDMX, Mexico ", "STATUS":0, "NAME": "","MORE_INFO":"Se abrieron grietas en la fachada del Edificio y al interior dueños indican que no hay peligro pero las grietas son muy evidentes en la fachada y al interior. ","TYPE":"Edificio"}, "geometry": { "type": "Point", "coordinates": [ -99.2231494,19.3185174 ] }},
{ "type": "Feature", "properties": { "ADDRESS": " University City, Mexico City, CDMX, Mexico ", "STATUS":0, "NAME": "","MORE_INFO":"Grietas ","TYPE":"Edificio"}, "geometry": { "type": "Point", "coordinates": [ -99.1843676,19.3188895 ] }},
{ "type": "Feature", "properties": { "ADDRESS": " Morelos 56, Lomas Estrella 2da Secc, 09890 Ciudad de México, CDMX, Mexico ", "STATUS":0, "NAME": "","MORE_INFO":"Grieta en la banqueta y u grieta en uno de los cuartos ","TYPE":"Edificio"}, "geometry": { "type": "Point", "coordinates": [ -99.0917369,19.3195486 ] }},
{ "type": "Feature", "properties": { "ADDRESS": " Tercera Cda. Fresnos 12, Consejo Agrarista Mexicano, 09760 Ciudad de México, CDMX, Mexico ", "STATUS":0, "NAME": "","MORE_INFO":" hay grietas en piso, pared ,banqueta ","TYPE":"Edificio"}, "geometry": { "type": "Point", "coordinates": [ -99.0560952,19.322701 ] }},
{ "type": "Feature", "properties": { "ADDRESS": " Av. 11 392, Área Federal Panteón Civil San Nicolás Tolentino, 09850 Ciudad de México, CDMX, Mexico ", "STATUS":0, "NAME": "","MORE_INFO":"Grietas graves en los Edificios ","TYPE":"Edificio"}, "geometry": { "type": "Point", "coordinates": [ -99.0835878,19.3247132 ] }},
{ "type": "Feature", "properties": { "ADDRESS": " Miguel Hidalgo 29, San Bartolo Ameyalco, 01800 Ciudad de México, CDMX, Mexico ", "STATUS":0, "NAME": "","MORE_INFO":"Casa parcialmente colapsada toda esta zo tiene bastantes derrumbes y casas totalmente colapsadas ","TYPE":"Edificio"}, "geometry": { "type": "Point", "coordinates": [ -99.2686903,19.3288538 ] }},
{ "type": "Feature", "properties": { "ADDRESS": " Leandro Valle, 05410 San Lorenzo Acopilco, CDMX, Mexico ", "STATUS":0, "NAME": "","MORE_INFO":"Daño severo a cúpulas de iglesia ","TYPE":"Edificio"}, "geometry": { "type": "Point", "coordinates": [ -99.3270975,19.328922 ] }},
{ "type": "Feature", "properties": { "ADDRESS": " Av. Acahuita 226, Pedregal de Santo Domingo, 04369 Ciudad de México, CDMX, Mexico ", "STATUS":0, "NAME": "","MORE_INFO":"Grietas ","TYPE":"Edificio"}, "geometry": { "type": "Point", "coordinates": [ -99.1719496,19.3290209 ] }},
{ "type": "Feature", "properties": { "ADDRESS": " Zolin 26, Pedregal de Santo Domingo, 04369 Ciudad de México, CDMX, Mexico ", "STATUS":0, "NAME": "","MORE_INFO":"Grietas ","TYPE":"Edificio"}, "geometry": { "type": "Point", "coordinates": [ -99.1598344,19.3294421 ] }},
{ "type": "Feature", "properties": { "ADDRESS": " Av. Universidad 3000, Edificio A, Delegación Coyoacán, Col. Ciudad Universitaria, 04510 Ciudad de México, CDMX, Mexico ", "STATUS":0, "NAME": "","MORE_INFO":" Grietas en algus paredes, alcanza todo el espesor de la pared y se presentan debajo de ventas. ","TYPE":"Edificio"}, "geometry": { "type": "Point", "coordinates": [ -99.1770569,19.3300744 ] }},
{ "type": "Feature", "properties": { "ADDRESS": " Prolongacion San Diego 72, San Bartolo Ameyalco, 01800 Ciudad de México, CDMX, Mexico ", "STATUS":0, "NAME": "","MORE_INFO":"Grietas de muros ","TYPE":"Edificio"}, "geometry": { "type": "Point", "coordinates": [ -99.2689811,19.3321184 ] }},
{ "type": "Feature", "properties": { "ADDRESS": " Francisco I. Madero 56, San Bartolo Ameyalco, 01800 Ciudad de México, CDMX, Mexico ", "STATUS":0, "NAME": "","MORE_INFO":"Existen fracturas en primer y segundo piso ","TYPE":"Edificio"}, "geometry": { "type": "Point", "coordinates": [ -99.2729802,19.3325559 ] }},
{ "type": "Feature", "properties": { "ADDRESS": " Ejido de Los Reyes 139, Ex-Ejido de San Francisco Culhuacan, 04470 Ciudad de México, CDMX, Mexico ", "STATUS":0, "NAME": "","MORE_INFO":" Afectación de las colums de apoyo, grietas profundas ","TYPE":"Edificio"}, "geometry": { "type": "Point", "coordinates": [ -99.1266958,19.3329216 ] }},
{ "type": "Feature", "properties": { "ADDRESS": " Porfirio Díaz 28, Presidentes de México, 09740 Ciudad de México, CDMX, Mexico ", "STATUS":0, "NAME": "","MORE_INFO":" Se hundió la calle, aproximadamente medio escalón ","TYPE":"Edificio"}, "geometry": { "type": "Point", "coordinates": [ -99.0562356,19.3330414 ] }},
{ "type": "Feature", "properties": { "ADDRESS": " Tlacuiloca 13, San Francisco Culhuacan, San Francisco Culhuacan de San Francisco, 04260 Ciudad de México, CDMX, Mexico ", "STATUS":0, "NAME": "","MORE_INFO":"varias grietas en 2 Edificios y casas se solicita cheque proteccion civil o algu autoridad ","TYPE":"Edificio"}, "geometry": { "type": "Point", "coordinates": [ -99.1193131,19.3333099 ] }},
{ "type": "Feature", "properties": { "ADDRESS": " Av de las Torres 805, San José del Olivar, Reserva Ecológica Torres de Potrero, 01770 Ciudad de México, CDMX, Mexico ", "STATUS":0, "NAME": "","MORE_INFO":"Grietas en todos los pisos y Edificios ","TYPE":"Edificio"}, "geometry": { "type": "Point", "coordinates": [ -99.240356,19.3339007 ] }},
{ "type": "Feature", "properties": { "ADDRESS": " Filosofía y Letras 21, Copilco Universidad, 04360 Ciudad de México, CDMX, Mexico ", "STATUS":0, "NAME": "","MORE_INFO":"Grietas en paredes. ","TYPE":"Edificio"}, "geometry": { "type": "Point", "coordinates": [ -99.1772014,19.3340837 ] }},
{ "type": "Feature", "properties": { "ADDRESS": " Filosofía y Letras 21, Copilco Universidad, 04360 Ciudad de México, CDMX, Mexico ", "STATUS":0, "NAME": "","MORE_INFO":" Grietas que atraviesan la pared, piso y techo ","TYPE":"Edificio"}, "geometry": { "type": "Point", "coordinates": [ -99.1772014,19.3340837 ] }},
{ "type": "Feature", "properties": { "ADDRESS": "la estructura se daño ", "STATUS":0, "NAME": "","MORE_INFO":"Se fracturaron colums y trabes ","TYPE":"Edificio"}, "geometry": { "type": "Point", "coordinates": [ -99.1772014,19.3340837 ] }},
{ "type": "Feature", "properties": { "ADDRESS": " Roberto Ríos Elizondo, San José del Olivar, 01770 Ciudad de México, CDMX, Mexico ", "STATUS":0, "NAME": "","MORE_INFO":"el techo del baño tiene grietas y desprendimientos y un pared del comedor u fisura ","TYPE":"Edificio"}, "geometry": { "type": "Point", "coordinates": [ -99.2347169,19.3348346 ] }},
{ "type": "Feature", "properties": { "ADDRESS": " Av Pacífico & Calz. Candelaria, Los Reyes, 04330 Ciudad de México, CDMX, Mexico ", "STATUS":0, "NAME": "","MORE_INFO":"Se cayó la pared exter de la Escuela lado Candelaria ","TYPE":"Edificio"}, "geometry": { "type": "Point", "coordinates": [ -99.1481691,19.3354998 ] }},
{ "type": "Feature", "properties": { "ADDRESS": " Eje 10 Sur, Av. Pedro Henríquez Ureña, Pedregal de Coyoacán, Los Reyes, 04330 Ciudad de México, CDMX, Mexico ", "STATUS":0, "NAME": "","MORE_INFO":"Las colums en la base del Edificio se agrietaron ","TYPE":"Edificio"}, "geometry": { "type": "Point", "coordinates": [ -99.1615932,19.3355546 ] }},
{ "type": "Feature", "properties": { "ADDRESS": " Crisantemo 13, San José del Olivar, 01770 Ciudad de México, CDMX, Mexico ", "STATUS":0, "NAME": "","MORE_INFO":"Hay grietas horizontales en los límites de cada piso del Edificio ","TYPE":"Edificio"}, "geometry": { "type": "Point", "coordinates": [ -99.237531,19.335971 ] }},
{ "type": "Feature", "properties": { "ADDRESS": " Cerro del Agua, Integración Latinoamerica, 04350 Ciudad de México, CDMX, Mexico ", "STATUS":0, "NAME": "","MORE_INFO":"Grietas grandes en el Edificio ","TYPE":"Edificio"}, "geometry": { "type": "Point", "coordinates": [ -99.1763842,19.3365625 ] }},
{ "type": "Feature", "properties": { "ADDRESS": " Cerro del Agua 179, Integración Latinoamerica, 04310 Ciudad de México, CDMX, Mexico ", "STATUS":0, "NAME": "","MORE_INFO":" ","TYPE":"Edificio"}, "geometry": { "type": "Point", "coordinates": [ -99.1762753,19.3366003 ] }},
{ "type": "Feature", "properties": { "ADDRESS": " Cerro del Agua 179, Integración Latinoamerica, 04310 Ciudad de México, CDMX, Mexico ", "STATUS":0, "NAME": "","MORE_INFO":"Grietas en paredes de habitaciones del departamento ","TYPE":"Edificio"}, "geometry": { "type": "Point", "coordinates": [ -99.1762753,19.3366003 ] }},
{ "type": "Feature", "properties": { "ADDRESS": " Las Flores 71, Los Reyes, 04330 Ciudad de México, CDMX, Mexico ", "STATUS":0, "NAME": "","MORE_INFO":"Grietas en el piso y en muros ","TYPE":"Edificio"}, "geometry": { "type": "Point", "coordinates": [ -99.1555588,19.3369473 ] }},
{ "type": "Feature", "properties": { "ADDRESS": " Revolución 10, Francisco Villa, 09720 Ciudad de México, CDMX, Mexico ", "STATUS":0, "NAME": "","MORE_INFO":"Grietas y posibles derrumbes ","TYPE":"Edificio"}, "geometry": { "type": "Point", "coordinates": [ -99.0614169,19.3369583 ] }},
{ "type": "Feature", "properties": { "ADDRESS": " Rio de la Magdale 116, Loreto y Campamento, 01080 Ciudad de México, CDMX, Mexico ", "STATUS":0, "NAME": "","MORE_INFO":"Grietas en trabes ","TYPE":"Edificio"}, "geometry": { "type": "Point", "coordinates": [ -99.1979074,19.3369798 ] }},
{ "type": "Feature", "properties": { "ADDRESS": " Cecilio Ortega 23, La Era I y II, Ciudad de México, CDMX, Mexico ", "STATUS":0, "NAME": "","MORE_INFO":"La pared del primer piso de la casa tiene u grieta a consecuencia del sismo. ","TYPE":"Edificio"}, "geometry": { "type": "Point", "coordinates": [ -99.055295,19.337105 ] }},
{ "type": "Feature", "properties": { "ADDRESS": " Rómulo O'Farril 468, Progreso, 01080 Ciudad de México, CDMX, Mexico ", "STATUS":0, "NAME": "","MORE_INFO":"Cuarteaduras importantes en las tres torres de Edificios ","TYPE":"Edificio"}, "geometry": { "type": "Point", "coordinates": [ -99.212368,19.3372526 ] }},
{ "type": "Feature", "properties": { "ADDRESS": " Benito Juárez 33, Santa Cruz Meyehualco, 09700 Ciudad de México, CDMX, Mexico ", "STATUS":0, "NAME": "","MORE_INFO":"Grietas en fachada y escaleras ","TYPE":"Edificio"}, "geometry": { "type": "Point", "coordinates": [ -99.0404272,19.3376619 ] }},
{ "type": "Feature", "properties": { "ADDRESS": " Rio de la Magdale, Ciudad de México, CDMX, Mexico ", "STATUS":0, "NAME": "","MORE_INFO":"Hay muchas grietas en todo el Hospital ","TYPE":"Edificio"}, "geometry": { "type": "Point", "coordinates": [ -99.1962276,19.3377969 ] }},
{ "type": "Feature", "properties": { "ADDRESS": " Rómulo O'Farril 468, Olivar de los Padres, 01780 Del. Álvaro Obregón, CDMX, Mexico ", "STATUS":0, "NAME": "","MORE_INFO":"Grietas o corteaduras en casi todas las paredes del departamento. ","TYPE":"Edificio"}, "geometry": { "type": "Point", "coordinates": [ -99.211961,19.337851 ] }},
{ "type": "Feature", "properties": { "ADDRESS": " Cruz Verde 37, Los Reyes, 04330 Ciudad de México, CDMX, Mexico ", "STATUS":0, "NAME": "","MORE_INFO":" Grietas en muros, hundimiento en piso, techo de lámi.Solo queremos revisión de posible riesgo ","TYPE":"Edificio"}, "geometry": { "type": "Point", "coordinates": [ -99.1576395,19.3386278 ] }},
{ "type": "Feature", "properties": { "ADDRESS": " Av 5 de Mayo, Ciudad de México, CDMX, Mexico ", "STATUS":0, "NAME": "","MORE_INFO":"Grieta en el pavimento en medio de la calle undimientos en banquetas ","TYPE":"Edificio"}, "geometry": { "type": "Point", "coordinates": [ -99.0649134,19.338849 ] }},
{ "type": "Feature", "properties": { "ADDRESS": " Avenida Universidad 1953, Copilco Universidad, 04310 Ciudad de México, CDMX, Mexico ", "STATUS":0, "NAME": "","MORE_INFO":"Varias cuarteaduras y grietas y algunos yesos y azulejos caídos ","TYPE":"Edificio"}, "geometry": { "type": "Point", "coordinates": [ -99.1825435,19.3392532 ] }},
{ "type": "Feature", "properties": { "ADDRESS": " Privada de Chimalistac 42, Torres de Chimalistac, Copilco Universidad, 04319 Ciudad de México, CDMX, Mexico ", "STATUS":0, "NAME": "","MORE_INFO":"Grietas en las paredes ","TYPE":"Edificio"}, "geometry": { "type": "Point", "coordinates": [ -99.1842154,19.340035 ] }},
{ "type": "Feature", "properties": { "ADDRESS": " Av Toluca 387, Olivar de los Padres, 01780 Ciudad de México, CDMX, Mexico ", "STATUS":0, "NAME": "","MORE_INFO":"Grietas en las paredes despues de sismo ","TYPE":"Edificio"}, "geometry": { "type": "Point", "coordinates": [ -99.2150738,19.3403144 ] }},
{ "type": "Feature", "properties": { "ADDRESS": " Av Toluca 387, Olivar de los Padres, 01780 Ciudad de México, CDMX, Mexico ", "STATUS":0, "NAME": "","MORE_INFO":"Grietas en las paredes despues de sismoo ","TYPE":"Edificio"}, "geometry": { "type": "Point", "coordinates": [ -99.2150738,19.3403144 ] }},
{ "type": "Feature", "properties": { "ADDRESS": " Privada de Chimalistac, Ciudad de México, CDMX, Mexico ", "STATUS":0, "NAME": "","MORE_INFO":"Cuarteaduras en las paredes y posible fuga de gas ","TYPE":"Edificio"}, "geometry": { "type": "Point", "coordinates": [ -99.1834324,19.3403299 ] }},
{ "type": "Feature", "properties": { "ADDRESS": " Guerrero 26, San Francisco Culhuacan de la Magdale, 04260 Ciudad de México, CDMX, Mexico ", "STATUS":0, "NAME": "","MORE_INFO":"Grietes en lo diferentes Niveles ","TYPE":"Edificio"}, "geometry": { "type": "Point", "coordinates": [ -99.1152681,19.3405161 ] }},
{ "type": "Feature", "properties": { "ADDRESS": " Central, Atlántida, 04370 Ciudad de México, CDMX, Mexico ", "STATUS":0, "NAME": "","MORE_INFO":" ","TYPE":"Edificio"}, "geometry": { "type": "Point", "coordinates": [ -99.1470314,19.3405907 ] }},
{ "type": "Feature", "properties": { "ADDRESS": " Javier Mi 70, Santa Cruz Meyehualco, 09700 Ciudad de México, CDMX, Mexico ", "STATUS":0, "NAME": "","MORE_INFO":"Grietas erea de ventas y muros ","TYPE":"Edificio"}, "geometry": { "type": "Point", "coordinates": [ -99.0383325,19.3409719 ] }},
{ "type": "Feature", "properties": { "ADDRESS": " Av. Tláhuac 3993, Los Reyes Culhuacan, 09870 Ciudad de México, CDMX, Mexico ", "STATUS":0, "NAME": "","MORE_INFO":"Grietas en patios zaguán y un poste apuntó de caer ","TYPE":"Edificio"}, "geometry": { "type": "Point", "coordinates": [ -99.1087617,19.3410803 ] }},
{ "type": "Feature", "properties": { "ADDRESS": " Av 5 de Mayo 268, La Era I y II, Ciudad de México, CDMX, Mexico ", "STATUS":0, "NAME": "","MORE_INFO":" Son 4 departamentos en planta baja, con grietas que se ven profundas, en paredes de forma diagol, en techos y algus colums, uno de los departamentos que tiene 2 niveles, presenta hundimiento en u esqui. Ayuda por favor, no sabemos que tan grave pueda ser ","TYPE":"Edificio"}, "geometry": { "type": "Point", "coordinates": [ -99.0536345,19.3413288 ] }},
{ "type": "Feature", "properties": { "ADDRESS": " Calle Apio 43, Los Ángeles, 09830 Ciudad de México, CDMX, Mexico ", "STATUS":0, "NAME": "","MORE_INFO":"Falla de servicio de luz eléctrica ","TYPE":"Edificio"}, "geometry": { "type": "Point", "coordinates": [ -99.0649955,19.3413702 ] }},
{ "type": "Feature", "properties": { "ADDRESS": " Eje 9 Sur & Cerro del Sombrero, Campestre Churubusco, 04200 Ciudad de México, CDMX, Mexico ", "STATUS":0, "NAME": "","MORE_INFO":"Grietas y undimiento del contorno del Edificio ","TYPE":"Edificio"}, "geometry": { "type": "Point", "coordinates": [ -99.1408259,19.3415336 ] }},
{ "type": "Feature", "properties": { "ADDRESS": " Calle Oaxaca, Ciudad de México, CDMX, Mexico ", "STATUS":0, "NAME": "","MORE_INFO":"Falla estructural ","TYPE":"Edificio"}, "geometry": { "type": "Point", "coordinates": [ -99.0019265,19.3427021 ] }},
{ "type": "Feature", "properties": { "ADDRESS": " Paseo Alamos 55, Paseos de Taxqueña, 04250 Ciudad de México, CDMX, Mexico ", "STATUS":0, "NAME": "","MORE_INFO":"Diversas grietas y daños estructurales ","TYPE":"Edificio"}, "geometry": { "type": "Point", "coordinates": [ -99.1290094,19.3427462 ] }},
{ "type": "Feature", "properties": { "ADDRESS": " Cda. Guatemala, Parque San Andrés, 04040 Ciudad de México, CDMX, Mexico ", "STATUS":0, "NAME": "","MORE_INFO":" Fractura en esqui de primer nivel, cuartea duras en fachadas y fractura en corniza de azotea ","TYPE":"Edificio"}, "geometry": { "type": "Point", "coordinates": [ -99.1461847,19.3428664 ] }},
{ "type": "Feature", "properties": { "ADDRESS": " Av Pacífico 109, Los Reyes, 04330 Ciudad de México, CDMX, Mexico ", "STATUS":0, "NAME": "","MORE_INFO":" Somos tres Edificios,el tercero que está al fondo presenta u grieta en el punto de unión con el Edificio contiguo. Así mismo el Edificio del otro extremo pegado a nosotros tiene u grieta muy larga ","TYPE":"Edificio"}, "geometry": { "type": "Point", "coordinates": [ -99.1557484,19.3428735 ] }},
{ "type": "Feature", "properties": { "ADDRESS": " Avenida Universidad 1861, Copilco Universidad, 04360 Ciudad de México, CDMX, Mexico ", "STATUS":0, "NAME": "","MORE_INFO":"Grietas probablemente severas ","TYPE":"Edificio"}, "geometry": { "type": "Point", "coordinates": [ -99.1817504,19.3429319 ] }},
{ "type": "Feature", "properties": { "ADDRESS": " Av Pacífico 241, Los Reyes, 04330 Ciudad de México, CDMX, Mexico ", "STATUS":0, "NAME": "","MORE_INFO":" Grietas tipo escalera en paredes de cuartos del segundo piso, y grieta en pared de plafón de primer piso ","TYPE":"Edificio"}, "geometry": { "type": "Point", "coordinates": [ -99.1560105,19.3430873 ] }},
{ "type": "Feature", "properties": { "ADDRESS": " GUATEMALA 22 Edificio C COLONIA CAMPESTRE CHURUBUSCO CODIGO POSTAL 04200 COYOACAN DISTRITO FEDERAL, Mexico ", "STATUS":0, "NAME": "","MORE_INFO":"Grietas y desprendimiento de material de las paredes ","TYPE":"Edificio"}, "geometry": { "type": "Point", "coordinates": [ -99.1428332,19.3433 ] }},
{ "type": "Feature", "properties": { "ADDRESS": " Tercera Cda. de Abasolo 9, San Mateo Tlaltengo, 05600 Ciudad de México, CDMX, Mexico ", "STATUS":0, "NAME": "","MORE_INFO":"Grietas en escaleras y muros ","TYPE":"Edificio"}, "geometry": { "type": "Point", "coordinates": [ -99.2756406,19.3438477 ] }},
{ "type": "Feature", "properties": { "ADDRESS": " Calle 43 9, Santa Cruz Meyehualco, 09290 Ciudad de México, CDMX, Mexico ", "STATUS":0, "NAME": "","MORE_INFO":"Se agrietan dos cuartos juntos las grietas traspaso de paren a pared no es posible tener a persos en esos cuartos ","TYPE":"Edificio"}, "geometry": { "type": "Point", "coordinates": [ -99.0415868,19.3440233 ] }},
{ "type": "Feature", "properties": { "ADDRESS": " Africa 35, La Concepción, 04020 Ciudad de México, CDMX, Mexico ", "STATUS":0, "NAME": "","MORE_INFO":"Grietas inters y exters ","TYPE":"Edificio"}, "geometry": { "type": "Point", "coordinates": [ -99.15754,19.3440827 ] }},
{ "type": "Feature", "properties": { "ADDRESS": " Paseo de Los Pirules 100, Paseos de Taxqueña, 04250 Ciudad de México, CDMX, Mexico ", "STATUS":0, "NAME": "","MORE_INFO":"Grietas ","TYPE":"Edificio"}, "geometry": { "type": "Point", "coordinates": [ -99.1230533,19.3443419 ] }},
{ "type": "Feature", "properties": { "ADDRESS": " Paseo de Los Framboyanes 110, Paseos de Taxqueña, 04250 Ciudad de México, CDMX, Mexico ", "STATUS":0, "NAME": "","MORE_INFO":"El Edificio vecino se recargó en el inmueble reportado. ","TYPE":"Edificio"}, "geometry": { "type": "Point", "coordinates": [ -99.1241568,19.3445638 ] }},
{ "type": "Feature", "properties": { "ADDRESS": " Calle 63 45, Santa Cruz Meyehualco, 09290 Ciudad de México, CDMX, Mexico ", "STATUS":0, "NAME": "","MORE_INFO":"Cuartiaduras en pared techo y piso en la parte de atrás de la casa ","TYPE":"Edificio"}, "geometry": { "type": "Point", "coordinates": [ -99.0458773,19.3452522 ] }},
{ "type": "Feature", "properties": { "ADDRESS": " Av. Cerro de las Torres 23, Campestre Churubusco, 04200 Ciudad de México, CDMX, Mexico ", "STATUS":0, "NAME": "","MORE_INFO":"Hay cuarteaduras en el Edificio principalmente abajo a un lado del estaciomiento. ","TYPE":"Edificio"}, "geometry": { "type": "Point", "coordinates": [ -99.1356738,19.3453634 ] }},
{ "type": "Feature", "properties": { "ADDRESS": " Galdino H Casados 56, Colonial Iztapalapa, 09270 Ciudad de México, CDMX, Mexico ", "STATUS":0, "NAME": "","MORE_INFO":"Se levantaron los mosaicos en línea recta y hay u pared con u grieta que atraviesa toda la pared ","TYPE":"Edificio"}, "geometry": { "type": "Point", "coordinates": [ -99.0537481,19.3453995 ] }},
{ "type": "Feature", "properties": { "ADDRESS": " Paseo de Los Grados 78, Paseos de Taxqueña, 04250 Ciudad de México, CDMX, Mexico ", "STATUS":0, "NAME": "","MORE_INFO":"Grietas y algunos departamentos con muros quebrados. ","TYPE":"Edificio"}, "geometry": { "type": "Point", "coordinates": [ -99.123022,19.3466434 ] }},
{ "type": "Feature", "properties": { "ADDRESS": " Camino Real de Mis 17, Lomas de los Ángeles Tetelpan, 01790 Ciudad de México, CDMX, Mexico ", "STATUS":-1, "NAME": "","MORE_INFO":"Chistorras ","TYPE":"Edificio"}, "geometry": { "type": "Point", "coordinates": [ -99.2137268,19.3470377 ] }},
{ "type": "Feature", "properties": { "ADDRESS": " Camino Real de Mis 17, Lomas de los Ángeles Tetelpan, 01790 Ciudad de México, CDMX, Mexico ", "STATUS":-1, "NAME": "","MORE_INFO":"Paredes con varias grietas ","TYPE":"Edificio"}, "geometry": { "type": "Point", "coordinates": [ -99.2137268,19.3470377 ] }},
{ "type": "Feature", "properties": { "ADDRESS": " Morelos 1, Los Reyes Culhuacan, 09840 Ciudad de México, CDMX, Mexico ", "STATUS":0, "NAME": "","MORE_INFO":"Derrumbe total ","TYPE":"Edificio"}, "geometry": { "type": "Point", "coordinates": [ -99.10749,19.3471908 ] }},
{ "type": "Feature", "properties": { "ADDRESS": " Eje 8 Sur (Calz. Ermita Iztapalapa) 2206, Iztapalapa, Constitución de 1917, 09260 Ciudad de México, CDMX, Mexico ", "STATUS":0, "NAME": "","MORE_INFO":"El puente de periférico está desnivelado hay cuarteaduras así como caída de concreto de la misma estructura ","TYPE":"Edificio"}, "geometry": { "type": "Point", "coordinates": [ -99.0659043,19.3472195 ] }},
{ "type": "Feature", "properties": { "ADDRESS": " Paseo de los Nogales 29, Paseos de Taxqueña, 04250 Ciudad de México, CDMX, Mexico ", "STATUS":0, "NAME": "","MORE_INFO":"Daño severo en fachada y colums ","TYPE":"Edificio"}, "geometry": { "type": "Point", "coordinates": [ -99.1254387,19.3472969 ] }},
{ "type": "Feature", "properties": { "ADDRESS": " Av. Cerro de las Torres, Ciudad de México, CDMX, Mexico ", "STATUS":0, "NAME": "","MORE_INFO":"Se cayó u barda por completo ","TYPE":"Edificio"}, "geometry": { "type": "Point", "coordinates": [ -99.1323828,19.3473728 ] }},
{ "type": "Feature", "properties": { "ADDRESS": " Prol. 16 de Septiembre 674, Contadero, 05230 Ciudad de México, CDMX, Mexico ", "STATUS":0, "NAME": "","MORE_INFO":" Grietas fuertes en muchos muros de todo el Edificio, tanto en departamentos como en escaleras y áreas comunes. Las grietas son de variadas direcciones; transversales, diagoles, verticales y algus pegadas a lozas de techos y/o pisos. ","TYPE":"Edificio"}, "geometry": { "type": "Point", "coordinates": [ -99.3012097,19.3474265 ] }},
{ "type": "Feature", "properties": { "ADDRESS": " Av. Insurgentes Sur 2079, San Ángel, 01000 Ciudad de México, CDMX, Mexico ", "STATUS":0, "NAME": "","MORE_INFO":"Abundantes Grietas ","TYPE":"Edificio"}, "geometry": { "type": "Point", "coordinates": [ -99.1876772,19.3479715 ] }},
{ "type": "Feature", "properties": { "ADDRESS": " Av. Insurgentes Sur 2079, San Ángel, 01000 Ciudad de México, CDMX, Mexico ", "STATUS":0, "NAME": "","MORE_INFO":"Grietas como arañazos en todos los muros interiores. ","TYPE":"Edificio"}, "geometry": { "type": "Point", "coordinates": [ -99.1876772,19.3479715 ] }},
{ "type": "Feature", "properties": { "ADDRESS": " Escocia 29, Parque San Andrés, 04040 Ciudad de México, CDMX, Mexico ", "STATUS":0, "NAME": "","MORE_INFO":"Derrumbe ","TYPE":"Edificio"}, "geometry": { "type": "Point", "coordinates": [ -99.1463779,19.3481159 ] }},
{ "type": "Feature", "properties": { "ADDRESS": " Escocia, Parque San Andrés, Ciudad de México, CDMX, Mexico ", "STATUS":0, "NAME": "","MORE_INFO":"Colapsó de parte del edifico y u casa. ","TYPE":"Edificio"}, "geometry": { "type": "Point", "coordinates": [ -99.1465726,19.3481318 ] }},
{ "type": "Feature", "properties": { "ADDRESS": " Paseo Nuevo 43, Paseos de Taxqueña, 04250 Ciudad de México, CDMX, Mexico ", "STATUS":0, "NAME": "","MORE_INFO":"1985 ","TYPE":"Edificio"}, "geometry": { "type": "Point", "coordinates": [ -99.1211894,19.3481704 ] }},
{ "type": "Feature", "properties": { "ADDRESS": " Francisco Ortega 42, Coyoacán, 04000 Ciudad de México, CDMX, Mexico ", "STATUS":0, "NAME": "","MORE_INFO":"La casa se derrumbó. Al parecer no había persos en el interior. ","TYPE":"Edificio"}, "geometry": { "type": "Point", "coordinates": [ -99.1641978,19.3483661 ] }},
{ "type": "Feature", "properties": { "ADDRESS": " Calle California 16, Parque San Andrés, 04040 Ciudad de México, CDMX, Mexico ", "STATUS":0, "NAME": "","MORE_INFO":"Afectaciones severas de cuarteaduras en todo el Edificio ","TYPE":"Edificio"}, "geometry": { "type": "Point", "coordinates": [ -99.147483,19.3489421 ] }},
{ "type": "Feature", "properties": { "ADDRESS": " Calle California 16, Parque San Andrés, 04040 Ciudad de México, CDMX, Mexico ", "STATUS":0, "NAME": "","MORE_INFO":" Loseta de la fachada abajo, muros interiores colapsados, vidrios rotos. ","TYPE":"Edificio"}, "geometry": { "type": "Point", "coordinates": [ -99.147483,19.3489421 ] }},
{ "type": "Feature", "properties": { "ADDRESS": " Plaza Centerio 8, Villa Coyoacán, 04000 Coyoacán, CDMX, Mexico ", "STATUS":0, "NAME": "","MORE_INFO":"U cacho de la tachada de la Iglesia se cayó. ","TYPE":"Edificio"}, "geometry": { "type": "Point", "coordinates": [ -99.1626308,19.349011 ] }},
{ "type": "Feature", "properties": { "ADDRESS": " Jacarandas 141, San Clemente Nte, 01740 Ciudad de México, CDMX, Mexico ", "STATUS":0, "NAME": "","MORE_INFO":"Leves Cuarteaduras en tres departamentos y u colum ","TYPE":"Edificio"}, "geometry": { "type": "Point", "coordinates": [ -99.2247715,19.3499433 ] }},
{ "type": "Feature", "properties": { "ADDRESS": " Paseo del Río 10, Paseos de Taxqueña, 04250 Ciudad de México, CDMX, Mexico ", "STATUS":0, "NAME": "","MORE_INFO":"Todo por dentro se tumbó ya no ahí da que hacer ","TYPE":"Edificio"}, "geometry": { "type": "Point", "coordinates": [ -99.1260232,19.3501229 ] }},
{ "type": "Feature", "properties": { "ADDRESS": " Camino Antiguo a Culhuacan 65, Estrella del Sur, 09820 Ciudad de México, CDMX, Mexico ", "STATUS":0, "NAME": "","MORE_INFO":"Algus grietas ","TYPE":"Edificio"}, "geometry": { "type": "Point", "coordinates": [ -99.1040497,19.3501392 ] }},
{ "type": "Feature", "properties": { "ADDRESS": " Paseo del Río 20, Paseos de Taxqueña, 04250 Ciudad de México, CDMX, Mexico ", "STATUS":0, "NAME": "","MORE_INFO":"Grietas través quebradas ventas rotas y a punto de colapsar ","TYPE":"Edificio"}, "geometry": { "type": "Point", "coordinates": [ -99.1256471,19.3501952 ] }},
{ "type": "Feature", "properties": { "ADDRESS": " Jardín Plaza Hidalgo 1, Coyoacán, 04000 Ciudad de México, CDMX, Mexico ", "STATUS":0, "NAME": "","MORE_INFO":"U cacho de la tachada de la Iglesia se cayó. ","TYPE":"Edificio"}, "geometry": { "type": "Point", "coordinates": [ -99.1622585,19.3502583 ] }},
{ "type": "Feature", "properties": { "ADDRESS": " 01710, Calz de Las Aguilas 1003, Amp Águilas, Ciudad de México, CDMX, Mexico ", "STATUS":0, "NAME": "","MORE_INFO":"El Edificio presenta grietas grandes y el Edificio un poco ladeado ","TYPE":"Edificio"}, "geometry": { "type": "Point", "coordinates": [ -99.2205825,19.3505283 ] }},
{ "type": "Feature", "properties": { "ADDRESS": " Felipe Ángeles 86, Zo Urba Ejidal Santa María Aztahuacan, 09570 Ciudad de México, CDMX, Mexico ", "STATUS":0, "NAME": "","MORE_INFO":"Grietas en paredes ","TYPE":"Edificio"}, "geometry": { "type": "Point", "coordinates": [ -99.0328062,19.3505613 ] }},
{ "type": "Feature", "properties": { "ADDRESS": " Vito Alessio Robles 45, Agrícola, Chimalistac, 01050 Ciudad de México, CDMX, Mexico ", "STATUS":0, "NAME": "","MORE_INFO":"Grietas en las paredes y en la estructura ","TYPE":"Edificio"}, "geometry": { "type": "Point", "coordinates": [ -99.1848513,19.3506714 ] }},
{ "type": "Feature", "properties": { "ADDRESS": " Avenida Universidad 1601, Agrícola, Chimalistac, 01050 Ciudad de México, CDMX, Mexico ", "STATUS":0, "NAME": "","MORE_INFO":"Multiples grietas y cuarteaduras en todo el Edificio (12 pisos) ","TYPE":"Edificio"}, "geometry": { "type": "Point", "coordinates": [ -99.178566,19.3511121 ] }},
{ "type": "Feature", "properties": { "ADDRESS": " Igcio Allende 45, Del Carmen, 04100 Ciudad de México, CDMX, Mexico ", "STATUS":0, "NAME": "","MORE_INFO":"Grietas techos paredes. Piso ","TYPE":"Edificio"}, "geometry": { "type": "Point", "coordinates": [ -99.1614738,19.351116 ] }},
{ "type": "Feature", "properties": { "ADDRESS": " Palmas 14, El Manto, 09830 Ciudad de México, CDMX, Mexico ", "STATUS":0, "NAME": "","MORE_INFO":"Grietas de más de dos metros de diámetro en pared y piso. ","TYPE":"Edificio"}, "geometry": { "type": "Point", "coordinates": [ -99.0818873,19.3514619 ] }},
{ "type": "Feature", "properties": { "ADDRESS": " Cuauhtémoc 75, Del Carmen, 04100 Ciudad de México, CDMX, Mexico ", "STATUS":0, "NAME": "","MORE_INFO":"Colapsó la fachada y el tercer nivel ","TYPE":"Edificio"}, "geometry": { "type": "Point", "coordinates": [ -99.1598777,19.3519223 ] }},
{ "type": "Feature", "properties": { "ADDRESS": " Av. Camino al Bosque & Loma del Padre, Zentlapatl, 05010 Ciudad de México, CDMX, Mexico ", "STATUS":0, "NAME": "","MORE_INFO":"Grietas en la edificación ","TYPE":"Edificio"}, "geometry": { "type": "Point", "coordinates": [ -99.3088382,19.3520627 ] }},
{ "type": "Feature", "properties": { "ADDRESS": " Av. Insurgentes Sur 1971, Guadalupe Inn, 01020 Ciudad de México, CDMX, Mexico ", "STATUS":0, "NAME": "","MORE_INFO":"Grietas en la torre norte del Edificio. ","TYPE":"Edificio"}, "geometry": { "type": "Point", "coordinates": [ -99.186678,19.3521228 ] }},
{ "type": "Feature", "properties": { "ADDRESS": " Fresnos 34, Tlacopac, 01049 Ciudad de México, CDMX, Mexico ", "STATUS":0, "NAME": "","MORE_INFO":"Aberturas entre escaleras y departamentos ","TYPE":"Edificio"}, "geometry": { "type": "Point", "coordinates": [ -99.1985543,19.3521663 ] }},
{ "type": "Feature", "properties": { "ADDRESS": " Cereales 130, Granjas Esmeralda, 09810 Ciudad de México, CDMX, Mexico ", "STATUS":0, "NAME": "","MORE_INFO":"Múltiples cuarteadoras en toda la estructura. Se requiere saber el nivel daño y si es habitable. ","TYPE":"Edificio"}, "geometry": { "type": "Point", "coordinates": [ -99.1136704,19.3521674 ] }},
{ "type": "Feature", "properties": { "ADDRESS": " Cjon. Gral. Aya 79, San Diego Churubusco, 04120 Ciudad de México, CDMX, Mexico ", "STATUS":0, "NAME": "","MORE_INFO":"Poste de luz muy dañado a punto de colapsar ","TYPE":"Edificio"}, "geometry": { "type": "Point", "coordinates": [ -99.1486977,19.3521677 ] }},
{ "type": "Feature", "properties": { "ADDRESS": " Vito Alessio Robles 380, Florida, 01030 Ciudad de México, CDMX, Mexico ", "STATUS":0, "NAME": "","MORE_INFO":"Daños estructurales en planta baja ","TYPE":"Edificio"}, "geometry": { "type": "Point", "coordinates": [ -99.1786012,19.3522532 ] }},
{ "type": "Feature", "properties": { "ADDRESS": " Avenida Veracruz 115, Cuajimalpa, 05000 Ciudad de México, CDMX, Mexico ", "STATUS":0, "NAME": "","MORE_INFO":"María Ele ","TYPE":"Edificio"}, "geometry": { "type": "Point", "coordinates": [ -99.3009574,19.352833 ] }},
{ "type": "Feature", "properties": { "ADDRESS": " Pegaso 86, Prado Churubusco, 04230 Ciudad de México, CDMX, Mexico ", "STATUS":0, "NAME": "","MORE_INFO":"Se callo el techo de mi casa ","TYPE":"Edificio"}, "geometry": { "type": "Point", "coordinates": [ -99.1256754,19.3546959 ] }},
{ "type": "Feature", "properties": { "ADDRESS": " Pegaso, Prado Churubusco, Ciudad de México, CDMX, Mexico ", "STATUS":0, "NAME": "","MORE_INFO":"Techos se cayo ","TYPE":"Edificio"}, "geometry": { "type": "Point", "coordinates": [ -99.1256719,19.3551368 ] }},
{ "type": "Feature", "properties": { "ADDRESS": " Calz. de Tlalpan 1703, San Diego Churubusco, 04120 Ciudad de México, CDMX, Mexico ", "STATUS":0, "NAME": "","MORE_INFO":" El inmueble es de la SEGOB, quedó muy afectado en su interior por el sismo, todo el persol alcanzó a salir al parecer sin lesiones pero el inmueble sufrió un daño considerable ","TYPE":"Edificio"}, "geometry": { "type": "Point", "coordinates": [ -99.1446957,19.3553185 ] }},
{ "type": "Feature", "properties": { "ADDRESS": " Plaza del Rocío 14, Belen de las Flores, 01110 Ciudad de México, CDMX, Mexico ", "STATUS":0, "NAME": "","MORE_INFO":" grita diagol por escaleras, y grietas a lo alto de paredes, no se ve ven muy profundas. ","TYPE":"Edificio"}, "geometry": { "type": "Point", "coordinates": [ -99.2342455,19.355784 ] }},
{ "type": "Feature", "properties": { "ADDRESS": " Av. Gavilán 43, San Miguel, 09360 Ciudad de México, CDMX, Mexico ", "STATUS":0, "NAME": "","MORE_INFO":"Visible a simple vista ","TYPE":"Edificio"}, "geometry": { "type": "Point", "coordinates": [ -99.0753905,19.3560613 ] }},
{ "type": "Feature", "properties": { "ADDRESS": " Ermita Iztapalapa 858, Sta Bárbara, 09000 Ciudad de México, CDMX, Mexico ", "STATUS":0, "NAME": "","MORE_INFO":"Los pasillos del callejón se levantaron y agrietaron así como el pasillo alrededor de nuestra vivienda ","TYPE":"Edificio"}, "geometry": { "type": "Point", "coordinates": [ -99.1045154,19.3561508 ] }},
{ "type": "Feature", "properties": { "ADDRESS": " Calle Xicoténcatl & Calz. Gral. Aya, San Diego Churubusco, 04120 Ciudad de México, CDMX, Mexico ", "STATUS":0, "NAME": "","MORE_INFO":"Grietas y bardas dañadas ","TYPE":"Edificio"}, "geometry": { "type": "Point", "coordinates": [ -99.1489546,19.3561548 ] }},
{ "type": "Feature", "properties": { "ADDRESS": " Parque Xicoténcatl, Xicoténcatl S/N, San Diego Churubusco, 04120 Coyoacán, CDMX, Mexico ", "STATUS":0, "NAME": "","MORE_INFO":"Fractura del muro perimetral del exconvento de Churubusco. ","TYPE":"Edificio"}, "geometry": { "type": "Point", "coordinates": [ -99.1509938,19.3564274 ] }},
{ "type": "Feature", "properties": { "ADDRESS": " Av. Vasco de Quiroga 4299, Contadero, 05370 Ciudad de México, CDMX, Mexico ", "STATUS":0, "NAME": "","MORE_INFO":"Gritas en muros colums y trabes en varias partes del Edificio y en muchos departamentos. ","TYPE":"Edificio"}, "geometry": { "type": "Point", "coordinates": [ -99.2841913,19.3570588 ] }},
{ "type": "Feature", "properties": { "ADDRESS": " Vie 71, Del Carmen, 04100 Ciudad de México, CDMX, Mexico ", "STATUS":0, "NAME": "","MORE_INFO":"Grietas en el sótano y estaciomiento PB ","TYPE":"Edificio"}, "geometry": { "type": "Point", "coordinates": [ -99.1601452,19.3573836 ] }},
{ "type": "Feature", "properties": { "ADDRESS": " Av. Río Churubusco 353, Gral Aya, 03340 Ciudad de México, CDMX, Mexico ", "STATUS":0, "NAME": "","MORE_INFO":"Las paredes están cuarteadas y través de carga fracturadas ","TYPE":"Edificio"}, "geometry": { "type": "Point", "coordinates": [ -99.1603142,19.3582921 ] }},
{ "type": "Feature", "properties": { "ADDRESS": " General Manuel Rincón 142, Gral Aya, 03340 Ciudad de México, CDMX, Mexico ", "STATUS":0, "NAME": "","MORE_INFO":"Daños de paredes y ventas ","TYPE":"Edificio"}, "geometry": { "type": "Point", "coordinates": [ -99.159093,19.3587468 ] }},
{ "type": "Feature", "properties": { "ADDRESS": " Franz Blom Petersen 121, Ermita, 03590 Ciudad de México, CDMX, Mexico ", "STATUS":0, "NAME": "","MORE_INFO":"Grietas en muros ","TYPE":"Edificio"}, "geometry": { "type": "Point", "coordinates": [ -99.1416987,19.359031 ] }},
{ "type": "Feature", "properties": { "ADDRESS": " Guty Cárdes 32, Guadalupe Inn, 01020 Ciudad de México, CDMX, Mexico ", "STATUS":0, "NAME": "","MORE_INFO":"Grietas en paredes ","TYPE":"Edificio"}, "geometry": { "type": "Point", "coordinates": [ -99.1886283,19.359147 ] }},
{ "type": "Feature", "properties": { "ADDRESS": " Av Batallones Rojos 205, Iztapalapa, 09200 Ciudad de México, CDMX, Mexico ", "STATUS":0, "NAME": "","MORE_INFO":"Hay grietas en la parte baja de los Edificios que recorre casi por completo varios Edificios ","TYPE":"Edificio"}, "geometry": { "type": "Point", "coordinates": [ -99.0606566,19.3594074 ] }},
{ "type": "Feature", "properties": { "ADDRESS": " Prol. 5 de Mayo 696, Lomas de Tarango, 01620 Ciudad de México, CDMX, Mexico ", "STATUS":0, "NAME": "","MORE_INFO":"Se presentan varias grietas en el edifico K la mayoría de ellas en el 5 piso. ","TYPE":"Edificio"}, "geometry": { "type": "Point", "coordinates": [ -99.2176516,19.3594401 ] }},
{ "type": "Feature", "properties": { "ADDRESS": " Bruno Traven 150, Gral Aya, 03340 Ciudad de México, CDMX, Mexico ", "STATUS":0, "NAME": "","MORE_INFO":"Grieta en centro de muro de 4 metros. Abarca primer y segunda planta ","TYPE":"Edificio"}, "geometry": { "type": "Point", "coordinates": [ -99.1616745,19.3597984 ] }},
{ "type": "Feature", "properties": { "ADDRESS": " Ermita Iztapalapa 50, Amp Ricardo Flores Magón, 03590 Ciudad de México, CDMX, Mexico ", "STATUS":0, "NAME": "","MORE_INFO":"El puente vehicular tiene posibles daños estructurales hay u desnivelación cuarteaduras y caída de concreto ","TYPE":"Edificio"}, "geometry": { "type": "Point", "coordinates": [ -99.1429124,19.3597999 ] }},
{ "type": "Feature", "properties": { "ADDRESS": " Privada Jesús del Monte 39, Cuajimalpa, 05000 Ciudad de México, CDMX, Mexico ", "STATUS":0, "NAME": "","MORE_INFO":"grietas en las paredes ","TYPE":"Edificio"}, "geometry": { "type": "Point", "coordinates": [ -99.2962017,19.3598028 ] }},
{ "type": "Feature", "properties": { "ADDRESS": " Calle Balboa 1016, Portales Sur, 03300 Ciudad de México, CDMX, Mexico ", "STATUS":0, "NAME": "","MORE_INFO":" Los 2 primeros pisos desprendimiento de recubrimiento, se cayó un pedazo de barda aquí ","TYPE":"Edificio"}, "geometry": { "type": "Point", "coordinates": [ -99.1460218,19.3599335 ] }},
{ "type": "Feature", "properties": { "ADDRESS": " Calle Balboa 1002, Portales Sur, 03300 Ciudad de México, CDMX, Mexico ", "STATUS":0, "NAME": "","MORE_INFO":"Grietas en la planta baja ","TYPE":"Edificio"}, "geometry": { "type": "Point", "coordinates": [ -99.1460693,19.3602894 ] }},
{ "type": "Feature", "properties": { "ADDRESS": " Prof. Otilio Montaño 11, Zo Urba Ejidal Santa María Aztahuacan, 09570 Ciudad de México, CDMX, Mexico ", "STATUS":0, "NAME": "","MORE_INFO":"Grietas en muros ","TYPE":"Edificio"}, "geometry": { "type": "Point", "coordinates": [ -99.0264272,19.3603811 ] }},
{ "type": "Feature", "properties": { "ADDRESS": " Calle Antillas 908, Portales Nte, 03300 Ciudad de México, CDMX, Mexico ", "STATUS":0, "NAME": "","MORE_INFO":"Caída de transformador de electricidad ","TYPE":"Edificio"}, "geometry": { "type": "Point", "coordinates": [ -99.1442542,19.3611245 ] }},
{ "type": "Feature", "properties": { "ADDRESS": " Av. Insurgentes Sur 1673, Guadalupe Inn, 01020 Ciudad de México, CDMX, Mexico ", "STATUS":0, "NAME": "","MORE_INFO":"Grietas desde planta baja hasta el nivel mas alto a lo largo de la escalera de emergencia. ","TYPE":"Edificio"}, "geometry": { "type": "Point", "coordinates": [ -99.1832816,19.3615071 ] }},
{ "type": "Feature", "properties": { "ADDRESS": " Francisco Sarabia 49, Santa Martha Acatitla, Ciudad de México, CDMX, Mexico ", "STATUS":0, "NAME": "","MORE_INFO":"En cuartos ","TYPE":"Edificio"}, "geometry": { "type": "Point", "coordinates": [ -99.0112602,19.361609 ] }},
{ "type": "Feature", "properties": { "ADDRESS": " Bruno Traven 2, Gral Aya, 03340 Ciudad de México, CDMX, Mexico ", "STATUS":0, "NAME": "","MORE_INFO":"Hay varias grietas en diferentes departamentos y parece que el Edificio de a lado está muy dañado ","TYPE":"Edificio"}, "geometry": { "type": "Point", "coordinates": [ -99.1570554,19.3618953 ] }},
{ "type": "Feature", "properties": { "ADDRESS": " Allende 110, San Pedro, 09000 Ciudad de México, CDMX, Mexico ", "STATUS":0, "NAME": "","MORE_INFO":" Caída de revestimiento, descuadre y numerosas grietas ","TYPE":"Edificio"}, "geometry": { "type": "Point", "coordinates": [ -99.0865821,19.362504 ] }},
{ "type": "Feature", "properties": { "ADDRESS": " Allende 61, San Pedro, Ciudad de México, CDMX, Mexico ", "STATUS":0, "NAME": "","MORE_INFO":"Bardas derrumbe total ","TYPE":"Edificio"}, "geometry": { "type": "Point", "coordinates": [ -99.0883976,19.3629027 ] }},
{ "type": "Feature", "properties": { "ADDRESS": " José María Velasco 91, San José Insurgentes, 03900 Ciudad de México, CDMX, Mexico ", "STATUS":0, "NAME": "","MORE_INFO":"Grietas en la parte central por fuera en ambas torres (2) y varias por dentro se los departamentos ","TYPE":"Edificio"}, "geometry": { "type": "Point", "coordinates": [ -99.1838365,19.3631954 ] }},
{ "type": "Feature", "properties": { "ADDRESS": " Martin Mendalde 1764, Acacias, 03240 Ciudad de México, CDMX, Mexico ", "STATUS":0, "NAME": "","MORE_INFO":" El Edificio tiene grietas inters y exters, las colums grietas verticales, el interior de las escaleras muy agrietado, los departamentos con grietas horizontales y verticales ","TYPE":"Edificio"}, "geometry": { "type": "Point", "coordinates": [ -99.1721861,19.3632027 ] }},
{ "type": "Feature", "properties": { "ADDRESS": " Teniente Héctor Espinoza Galván 506, Escuadrón 201, 09060 Ciudad de México, CDMX, Mexico ", "STATUS":0, "NAME": "","MORE_INFO":"Cuarteadura que dejó inhabitable u habitación. ","TYPE":"Edificio"}, "geometry": { "type": "Point", "coordinates": [ -99.1127799,19.3633449 ] }},
{ "type": "Feature", "properties": { "ADDRESS": " 16 de Septiembre 8, Santa Martha Acatitla, Ciudad de México, CDMX, Mexico ", "STATUS":0, "NAME": "","MORE_INFO":"Paredes estrelladas ","TYPE":"Edificio"}, "geometry": { "type": "Point", "coordinates": [ -99.009277,19.3634265 ] }},
{ "type": "Feature", "properties": { "ADDRESS": " Manuel López Cotilla 1810, Col del Valle Sur, 03100 Ciudad de México, CDMX, Mexico ", "STATUS":0, "NAME": "","MORE_INFO":"Grietas en varios departamentos y u barda del estaciomiento así como daño en u colum del estaciomiento con aplado mal hecho y quizá ocultando daño estructural del temblor del 85 ","TYPE":"Edificio"}, "geometry": { "type": "Point", "coordinates": [ -99.1704266,19.3641923 ] }},
{ "type": "Feature", "properties": { "ADDRESS": " José María Velasco 70, San José Insurgentes, 03900 Ciudad de México, CDMX, Mexico ", "STATUS":0, "NAME": "","MORE_INFO":" Grietas en piso 3. Pueden verse desde exterior, ademas de interior. Se solicita revisión, baja prioridad. ","TYPE":"Edificio"}, "geometry": { "type": "Point", "coordinates": [ -99.1853008,19.3642766 ] }},
{ "type": "Feature", "properties": { "ADDRESS": " Gral. Emiliano Zapata 79, Portales Nte, 03300 Ciudad de México, CDMX, Mexico ", "STATUS":0, "NAME": "","MORE_INFO":"Grieta de dos pisos en colum principal ","TYPE":"Edificio"}, "geometry": { "type": "Point", "coordinates": [ -99.14472,19.3647037 ] }},
{ "type": "Feature", "properties": { "ADDRESS": " Saratoga 714, Portales Sur, 03300 Ciudad de México, CDMX, Mexico ", "STATUS":0, "NAME": "","MORE_INFO":"Colapso de la planta baja y primer piso. Aun hay gente atrapada al interior. ","TYPE":"Edificio"}, "geometry": { "type": "Point", "coordinates": [ -99.1517007,19.3648893 ] }},
{ "type": "Feature", "properties": { "ADDRESS": " Saratoga 714, Portales Sur, 03300 Ciudad de México, CDMX, Mexico ", "STATUS":0, "NAME": "","MORE_INFO":"Colapsó el Edificio planta baja y primer piso aplastados ","TYPE":"Edificio"}, "geometry": { "type": "Point", "coordinates": [ -99.1517007,19.3648893 ] }},
{ "type": "Feature", "properties": { "ADDRESS": " Invierno 14, Merced Gómez, 01600 Ciudad de México, CDMX, Mexico ", "STATUS":0, "NAME": "","MORE_INFO":"Múltiples fracturas en la construción ","TYPE":"Edificio"}, "geometry": { "type": "Point", "coordinates": [ -99.1940498,19.3650094 ] }},
{ "type": "Feature", "properties": { "ADDRESS": " Eje 8 Sur, Sta Cruz Atoyac, Ciudad de México, CDMX, Mexico ", "STATUS":0, "NAME": "","MORE_INFO":"Grietas fuertes en Edificio. ","TYPE":"Edificio"}, "geometry": { "type": "Point", "coordinates": [ -99.1637357,19.3650275 ] }},
{ "type": "Feature", "properties": { "ADDRESS": " Calle Antillas 609, Portales Nte, 03300 Ciudad de México, CDMX, Mexico ", "STATUS":0, "NAME": "","MORE_INFO":" Gritas diagoles, paredes separadas del techo en los departamentos que están al lado del módulo de circulación ( escaleras, ascensores), grietas verticales, desprendimiento de materiales de la fachada producto de agrietamientos horizontales ","TYPE":"Edificio"}, "geometry": { "type": "Point", "coordinates": [ -99.143275,19.3650359 ] }},
{ "type": "Feature", "properties": { "ADDRESS": " Plaza Coyoacan 21, Merced Gómez, 01600 Ciudad de México, CDMX, Mexico ", "STATUS":0, "NAME": "","MORE_INFO":"Edificio de 16 niveles con grietas en elementos estructurales fuga severa de agua en azotea fuga severa de gas. ","TYPE":"Edificio"}, "geometry": { "type": "Point", "coordinates": [ -99.1968265,19.3651926 ] }},
{ "type": "Feature", "properties": { "ADDRESS": " Av. Popocatépetl 510, Xoco, 03330 Ciudad de México, CDMX, Mexico ", "STATUS":0, "NAME": "","MORE_INFO":" Grietas dentro del departamento en piso 6, y en todos los pasillos al nivel de las escaleras hay yeso, fisuras de las paredes caídos de grandes tamaños ","TYPE":"Edificio"}, "geometry": { "type": "Point", "coordinates": [ -99.1652481,19.3654455 ] }},
{ "type": "Feature", "properties": { "ADDRESS": " Mixcoac 3, Merced Gómez, 01600 Ciudad de México, CDMX, Mexico ", "STATUS":0, "NAME": "","MORE_INFO":"Hay grietas en todos los pisos de los Edificios ","TYPE":"Edificio"}, "geometry": { "type": "Point", "coordinates": [ -99.1945936,19.3655403 ] }},
{ "type": "Feature", "properties": { "ADDRESS": " Gral. Emiliano Zapata & Saratoga, Portales Nte, 03300 Ciudad de México, CDMX, Mexico ", "STATUS":0, "NAME": "","MORE_INFO":"Edificio dañado con sobrevivientes atrapados ","TYPE":"Edificio"}, "geometry": { "type": "Point", "coordinates": [ -99.1515032,19.3656564 ] }},
{ "type": "Feature", "properties": { "ADDRESS": " Malintzin 15, Portales Oriente, 03570 Ciudad de México, CDMX, Mexico ", "STATUS":0, "NAME": "","MORE_INFO":"Grietas en la pared derecha ","TYPE":"Edificio"}, "geometry": { "type": "Point", "coordinates": [ -99.1387516,19.3656674 ] }},
{ "type": "Feature", "properties": { "ADDRESS": " Saratoga, Ciudad de México, CDMX, Mexico ", "STATUS":0, "NAME": "","MORE_INFO":"Derrumbe total ","TYPE":"Edificio"}, "geometry": { "type": "Point", "coordinates": [ -99.1514871,19.3657329 ] }},
{ "type": "Feature", "properties": { "ADDRESS": " José María Rico 713, Col del Valle Sur, 03100 Ciudad de México, CDMX, Mexico ", "STATUS":0, "NAME": "","MORE_INFO":"Edificio con grietas y plafon levantado. Hemos llamado a proteccion civil y no tenemos respuesta. Urge es un Edificio sobre eje 8 sur y al lado hay un Edificio muy viejo. ","TYPE":"Edificio"}, "geometry": { "type": "Point", "coordinates": [ -99.1684276,19.3662503 ] }},
{ "type": "Feature", "properties": { "ADDRESS": " Yácatas 499, Sta Cruz Atoyac, 03310 Ciudad de México, CDMX, Mexico ", "STATUS":0, "NAME": "","MORE_INFO":"Grietas en el edf y apartamentos ","TYPE":"Edificio"}, "geometry": { "type": "Point", "coordinates": [ -99.1605049,19.3663835 ] }},
{ "type": "Feature", "properties": { "ADDRESS": " Av. Coyoacán 1625, Col del Valle Sur, 03100 Ciudad de México, CDMX, Mexico ", "STATUS":0, "NAME": "","MORE_INFO":"Superficial. Grieta en loseta y grieta en la unión del marco de la puerta y la pared. ","TYPE":"Edificio"}, "geometry": { "type": "Point", "coordinates": [ -99.1727289,19.3664684 ] }},
{ "type": "Feature", "properties": { "ADDRESS": " Av. Sta. Lucia 1120, Coli del Sur, 01430 Ciudad de México, CDMX, Mexico ", "STATUS":0, "NAME": "","MORE_INFO":"Es u gruta que está en todo el primer piso ","TYPE":"Edificio"}, "geometry": { "type": "Point", "coordinates": [ -99.2319841,19.3664714 ] }},
{ "type": "Feature", "properties": { "ADDRESS": " Ajusco 24, Portales Nte, 03300 Ciudad de México, CDMX, Mexico ", "STATUS":0, "NAME": "","MORE_INFO":"Caída de barda de entrada del estaciomiento de un restaurante ","TYPE":"Edificio"}, "geometry": { "type": "Point", "coordinates": [ -99.1434931,19.3664772 ] }},
{ "type": "Feature", "properties": { "ADDRESS": " Teniente Héctor Espinoza Galván 647, Escuadrón 201, 09060 Ciudad de México, CDMX, Mexico ", "STATUS":0, "NAME": "","MORE_INFO":" Agrietamientos en muros, techo y caída parcial de plafon en patio, planta baja ","TYPE":"Edificio"}, "geometry": { "type": "Point", "coordinates": [ -99.1119756,19.3664909 ] }},
{ "type": "Feature", "properties": { "ADDRESS": " Yácatas 243, Sta Cruz Atoyac, 03310 Ciudad de México, CDMX, Mexico ", "STATUS":0, "NAME": "","MORE_INFO":"Grietas en diagol en todos los muros y algunos castillos son 9 pisos y del 4 en adelante está muy inclido hacia la calle. ","TYPE":"Edificio"}, "geometry": { "type": "Point", "coordinates": [ -99.1604583,19.3665937 ] }},
{ "type": "Feature", "properties": { "ADDRESS": " Av. Insurgentes Sur 1524, Crédito Constructor, 03940 Ciudad de México, CDMX, Mexico ", "STATUS":0, "NAME": "","MORE_INFO":"Edificio todo agrietado ","TYPE":"Edificio"}, "geometry": { "type": "Point", "coordinates": [ -99.1809816,19.3665965 ] }},
{ "type": "Feature", "properties": { "ADDRESS": " Calle Azores 609, Portales Nte, 03300 Ciudad de México, CDMX, Mexico ", "STATUS":0, "NAME": "","MORE_INFO":"Colums desgajadas de Edificio 16 familias ","TYPE":"Edificio"}, "geometry": { "type": "Point", "coordinates": [ -99.1549773,19.3670858 ] }},
{ "type": "Feature", "properties": { "ADDRESS": " Calle Azores 609, Portales Nte, 03300 Ciudad de México, CDMX, Mexico ", "STATUS":0, "NAME": "","MORE_INFO":"Colums desgajadas de Edificio ","TYPE":"Edificio"}, "geometry": { "type": "Point", "coordinates": [ -99.1549773,19.3670858 ] }},
{ "type": "Feature", "properties": { "ADDRESS": " Calle Azores 609, Portales Nte, 03300 Ciudad de México, CDMX, Mexico ", "STATUS":0, "NAME": "","MORE_INFO":"Derrumbe parcial del Edificio ","TYPE":"Edificio"}, "geometry": { "type": "Point", "coordinates": [ -99.1549773,19.3670858 ] }},
{ "type": "Feature", "properties": { "ADDRESS": " Calle Azores 609, Portales Nte, 03300 Ciudad de México, CDMX, Mexico ", "STATUS":0, "NAME": "","MORE_INFO":"Edificio con colums fracturadas a punto de colapsar 32 familias en la calle ","TYPE":"Edificio"}, "geometry": { "type": "Point", "coordinates": [ -99.1549773,19.3670858 ] }},
{ "type": "Feature", "properties": { "ADDRESS": " Sauces 23, Garcimarrero, 01510 Ciudad de México, CDMX, Mexico ", "STATUS":0, "NAME": "","MORE_INFO":"Las paredes presentan grietas pronunciadas ","TYPE":"Edificio"}, "geometry": { "type": "Point", "coordinates": [ -99.2370983,19.3671888 ] }},
{ "type": "Feature", "properties": { "ADDRESS": " Alejandro Volta 10, Santa Fe, Paseo de las Lomas, 01330 Ciudad de México, CDMX, Mexico ", "STATUS":0, "NAME": "","MORE_INFO":"Grietas en todo el Edificio ","TYPE":"Edificio"}, "geometry": { "type": "Point", "coordinates": [ -99.2686653,19.3673655 ] }},
{ "type": "Feature", "properties": { "ADDRESS": " Av. Río Mixcoac 36, Crédito Constructor, 03230 Ciudad de México, CDMX, Mexico ", "STATUS":0, "NAME": "","MORE_INFO":"El Edificio sufrir agrietamiento ruptura de cristales por mencior de lo que pudimos observar desde afuera de las instalaciones ya que no hemos entrado al Edificio ","TYPE":"Edificio"}, "geometry": { "type": "Point", "coordinates": [ -99.1795861,19.3673765 ] }},
{ "type": "Feature", "properties": { "ADDRESS": " Plaza Samara, Antonio Dovali Jaime No. 94, Alvaro Obregon, Santa Fe, 1210 Ciudad de México, CDMX, Mexico ", "STATUS":0, "NAME": "","MORE_INFO":"Fuga de gas dentro de todo el Edificio ","TYPE":"Edificio"}, "geometry": { "type": "Point", "coordinates": [ -99.2591212,19.3674493 ] }},
{ "type": "Feature", "properties": { "ADDRESS": " S. Tapia 17, Ejército de Oriente Zo Peñón, Ciudad de México, CDMX, Mexico ", "STATUS":0, "NAME": "","MORE_INFO":"Grieta en muro ","TYPE":"Edificio"}, "geometry": { "type": "Point", "coordinates": [ -99.0225273,19.3678661 ] }},
{ "type": "Feature", "properties": { "ADDRESS": " Antonio Dovali Jaime 70, Santa Fe, Zedec Sta Fé, 01219 Ciudad de México, CDMX, Mexico ", "STATUS":0, "NAME": "","MORE_INFO":" ","TYPE":"Edificio"}, "geometry": { "type": "Point", "coordinates": [ -99.2588336,19.3678793 ] }},
{ "type": "Feature", "properties": { "ADDRESS": " Inocencio Arreola 22, Zo Urba Ejidal Santa Martha Acatitla Sur, 09530 Ciudad de México, CDMX, Mexico ", "STATUS":0, "NAME": "","MORE_INFO":"Grietas en paredes y techo. ","TYPE":"Edificio"}, "geometry": { "type": "Point", "coordinates": [ -99.0192962,19.3678879 ] }},
{ "type": "Feature", "properties": { "ADDRESS": " Cayetano Andrade 62, Zo Urba Ejidal Santa Martha Acatitla Sur, 09530 Ciudad de México, CDMX, Mexico ", "STATUS":0, "NAME": "","MORE_INFO":"Grieta en pared de mi casa ","TYPE":"Edificio"}, "geometry": { "type": "Point", "coordinates": [ -99.0185348,19.3680964 ] }},
{ "type": "Feature", "properties": { "ADDRESS": " Amores 1625, Col del Valle Sur, 03100 Ciudad de México, CDMX, Mexico ", "STATUS":0, "NAME": "","MORE_INFO":"Cairtadiras y paredes colapsadas ","TYPE":"Edificio"}, "geometry": { "type": "Point", "coordinates": [ -99.1703522,19.3682011 ] }},
{ "type": "Feature", "properties": { "ADDRESS": " Eje Central Lázaro Cárdes 418, Portales Nte, 03300 Ciudad de México, CDMX, Mexico ", "STATUS":0, "NAME": "","MORE_INFO":"Edificio de 7 pisos tiene grietas por el lado frontal y trasero y por dentro en la mayoría de los departamentos ","TYPE":"Edificio"}, "geometry": { "type": "Point", "coordinates": [ -99.1502921,19.3685973 ] }},
{ "type": "Feature", "properties": { "ADDRESS": " Eje Central Lázaro Cárdes 418, Portales Nte, 03300 Ciudad de México, CDMX, Mexico ", "STATUS":0, "NAME": "","MORE_INFO":" Muros fracturados,fachada, vidrios ","TYPE":"Edificio"}, "geometry": { "type": "Point", "coordinates": [ -99.1502921,19.3685973 ] }},
{ "type": "Feature", "properties": { "ADDRESS": " Calz. Igcio Zaragoza 2980, Área Federal Parque Ecológico el Salado, 09140 Ciudad de México, CDMX, Mexico ", "STATUS":0, "NAME": "","MORE_INFO":"Quiero reportar dañor en calzada Igcio Zaragoza 2980 Edificio k3 departamento 204 ","TYPE":"Edificio"}, "geometry": { "type": "Point", "coordinates": [ -99.0095902,19.3689371 ] }},
{ "type": "Feature", "properties": { "ADDRESS": " José Igcio Bartolache 1833, Col del Valle Sur, 03100 Ciudad de México, CDMX, Mexico ", "STATUS":0, "NAME": "","MORE_INFO":"Grietas por toda la casa ","TYPE":"Edificio"}, "geometry": { "type": "Point", "coordinates": [ -99.1742632,19.3692373 ] }},
{ "type": "Feature", "properties": { "ADDRESS": " Ernest J. Piper 60, Santa Fe, Paseo de las Lomas, 01330 Ciudad de México, CDMX, Mexico ", "STATUS":0, "NAME": "","MORE_INFO":"Grietas en paredes de departamentos ","TYPE":"Edificio"}, "geometry": { "type": "Point", "coordinates": [ -99.2670033,19.3693851 ] }},
{ "type": "Feature", "properties": { "ADDRESS": " Tultepec 28, San Andrés Tetepilco, 09440 Ciudad de México, CDMX, Mexico ", "STATUS":0, "NAME": "","MORE_INFO":"Casas sin energía eléctrica ","TYPE":"Edificio"}, "geometry": { "type": "Point", "coordinates": [ -99.1358672,19.3697659 ] }},